[{"Name":"Beirut","Description":"Beirut (Arabic: بيروت‎ Bayrūt, French: Beyrouth) is the capital city of Lebanon with a population of approximately 2.1 million people in its metropolitan area. The city is on a relatively small headland jutting into the east Mediterranean. It is by far the biggest city in Lebanon. Due to Lebanon's small size the capital has always held the status as the only true cosmopolitan city in the country, and ever since the independence, has been the commercial and financial hub of Lebanon.\n","Latitude":"33.886944","Longitude":"35.513056","Url":"https://en.wikivoyage.org/wiki/Beirut","Country":"Lebanon","Photo":"https://upload.wikimedia.org/wikipedia/commons/8/8c/Beirut_banner.jpg"},{"Name":"Baalbek","Description":"Baalbek بَعلبَك is one of the most spectacular archaeological sites in Lebanon and one of the country's UNESCO World Heritage Sites. Baalbeck or 'Heliopolis' as it was known is the site of great ancient temples built by the Phoenicians, the Romans, and other civilisations that have conquered the region and enjoyed the fertile soil of the Bekaa Valley. Some of the most celebrated temples are the ones of Bacchus, the Greek god of wine, and Jupiter, the Roman god of light, of the sky and weather.\n","Latitude":"34.0069","Longitude":"36.2039","Url":"https://en.wikivoyage.org/wiki/Baalbek","Country":"Lebanon","Photo":"https://upload.wikimedia.org/wikipedia/commons/1/1a/Baalbek_banner.jpg"},{"Name":"Byblos","Description":"\nByblos (بيبلوس), also known by its Arabic name of Jbeil (جبَيل), is an ancient Phoenician city located about 35 kilometers (23 miles) north of the capital Beirut in modern day Lebanon. The city has been declared a UNESCO World Heritage Site and is a popular daytrip from the capital.\n","Latitude":"34.12","Longitude":"35.65","Url":"https://en.wikivoyage.org/wiki/Byblos","Country":"Lebanon","Photo":"https://upload.wikimedia.org/wikipedia/commons/4/4d/Byblos_banner.jpg"},{"Name":"Jezzine","Description":"Jezzine is in South Lebanon.\n","Latitude":"33.533333","Longitude":"35.583333","Url":"https://en.wikivoyage.org/wiki/Jezzine","Country":"Lebanon","Photo":"https://upload.wikimedia.org/wikipedia/commons/9/97/Mena-asia_default_banner.jpg"},{"Name":"Jounieh","Description":"Jounieh is a city in Lebanon. It is closely associated with Beirut, the capital.\n","Latitude":"33.969722","Longitude":"35.615556","Url":"https://en.wikivoyage.org/wiki/Jounieh","Country":"Lebanon","Photo":"https://upload.wikimedia.org/wikipedia/commons/thumb/7/70/Jounieh_Wikivoyage_banner.jpg/2560px-Jounieh_Wikivoyage_banner.jpg"},{"Name":"Sidon","Description":"\nSidon (Arabic: Saida صَيْدا) is in a city in Lebanon. The people (population: 100,000) are largely Sunni Muslims. The main attraction of Sidon is its Sea Castle, built by the Crusaders in the 13th century.\n","Latitude":"33.560556","Longitude":"35.398056","Url":"https://en.wikivoyage.org/wiki/Sidon","Country":"Lebanon","Photo":"https://upload.wikimedia.org/wikipedia/commons/1/1c/Sidon_banner.jpg"},{"Name":"Tripoli (Lebanon)","Description":"Tripoli (Arabic: طرابلس, Trablus) is a city in northern Lebanon.\n","Latitude":"34.433333","Longitude":"35.85","Url":"https://en.wikivoyage.org/wiki/Tripoli_(Lebanon)","Country":"Lebanon","Photo":"https://upload.wikimedia.org/wikipedia/commons/d/d7/Tripoli_Lebanon_banner.jpg"},{"Name":"Tyre","Description":"Tyre (Arabic: Sour صُوْر) is the fourth-largest city in Lebanon. It is particularly noteworthy for its stunning and clean beaches (unlike those at Sidon) as well as some of the finest examples of Roman architecture in the world. Situated on a peninsula, it is the largest city in the south of the country after Sidon.\n","Latitude":"33.270833","Longitude":"35.196111","Url":"https://en.wikivoyage.org/wiki/Tyre","Country":"Lebanon","Photo":"https://upload.wikimedia.org/wikipedia/commons/4/4c/Tyre_banner.JPG"},{"Name":"Zahle","Description":"Zahle (or Zahlé; Arabic: زحلة) is a city in Lebanon, located 52 km east of Beirut.\n","Latitude":"33.833333","Longitude":"35.916667","Url":"https://en.wikivoyage.org/wiki/Zahle","Country":"Lebanon","Photo":"https://upload.wikimedia.org/wikipedia/commons/9/97/Mena-asia_default_banner.jpg"},{"Name":"Jeita","Description":"Jeita, or Jeita Grotto, is a cave located in Lebanon about 18 km north of Beirut.\n","Latitude":"33.95","Longitude":"35.64","Url":"https://en.wikivoyage.org/wiki/Jeita","Country":"Lebanon","Photo":"https://upload.wikimedia.org/wikipedia/commons/thumb/1/11/Jeita_banner_Aerial_lift.jpg/2560px-Jeita_banner_Aerial_lift.jpg"},{"Name":"Kadisha Valley","Description":"Northern Lebanon uniquely blends the outdoors with extensive historical and cultural attractions. With the country’s highest mountain, Qornet es-Sawda (3,090m), as well as the highest ski resort, The Cedars, this region offers a rocky, rugged terrain that makes Lebanon unique in the Middle East. At the far northern end of the Mt. Lebanon range, the Akkar region is the most remote area of the country, housing traditional villages and beautiful scenery.\n","Latitude":"34.433","Longitude":"35.85","Url":"https://en.wikivoyage.org/wiki/Kadisha_Valley","Country":"Lebanon","Photo":"https://upload.wikimedia.org/wikipedia/commons/thumb/a/a8/WV_banner_Kadisha_Valley_view.jpg/2560px-WV_banner_Kadisha_Valley_view.jpg"},{"Name":"Deir el Qamar","Description":"Deir al Qamar (Arabic: دير القمر) is a village in Mount Lebanon.\n","Latitude":"33.7000","Longitude":"35.5667","Url":"https://en.wikivoyage.org/wiki/Deir_el_Qamar","Country":"Lebanon","Photo":"https://upload.wikimedia.org/wikipedia/commons/9/97/Mena-asia_default_banner.jpg"}]