[{"Name":"Santo Domingo","Description":"Santo Domingo is the capital of the Dominican Republic, the oldest European city in the Americas, and the most advanced city in the Island. The old city is on the UNESCO World Heritage List.\n","Latitude":"18.47188","Longitude":"-69.891418","Url":"https://en.wikivoyage.org/wiki/Santo_Domingo","Country":"Dominican Republic"},{"Name":"Higüey","Description":"Higüey is a city in the Dominican Republic.\n","Latitude":"18.618055555556","Longitude":"-68.711111111111","Url":"https://en.wikivoyage.org/wiki/Hig%C3%BCey","Country":"Dominican Republic"},{"Name":"Juan Dolio","Description":"Juan Dolio / Villas del Mar is a city in San Pedro de Macoris, in the Dominican Republic.\n","Latitude":"18.4250","Longitude":"-69.4242","Url":"https://en.wikivoyage.org/wiki/Juan_Dolio","Country":"Dominican Republic"},{"Name":"Puerto Plata","Description":"\nPuerto Plata or San Felipe de Puerto Plata is a city in the Dominican Republic with a population of about 130,000. It is capital of the province of Puerto Plata.\n","Latitude":"19.795833","Longitude":"-70.694444","Url":"https://en.wikivoyage.org/wiki/Puerto_Plata","Country":"Dominican Republic"},{"Name":"Punta Cana","Description":"\nPunta Cana is the name of a town and tourist region at the easternmost tip of the Dominican Republic. The region, covering about 420,000m² (approximately 1,100 acres), is home to a coastline of sandy white beaches.\n","Latitude":"18.5333","Longitude":"-68.3667","Url":"https://en.wikivoyage.org/wiki/Punta_Cana","Country":"Dominican Republic"},{"Name":"San Pedro de Macoris","Description":"San Pedro de Macoris is a city in the province of the same name in the Dominican Republic. It is on the southern coast, 75km east of Santo Domingo and 45km east of the International Airport of \"Las Americas\" (SDQ), and has 140,000 inhabitants.\n","Latitude":"18.457222","Longitude":"-69.306111","Url":"https://en.wikivoyage.org/wiki/San_Pedro_de_Macoris","Country":"Dominican Republic"},{"Name":"Santa Barbara De Samana","Description":"Santa Barbara De Samana is a city in the Samana Peninsula, Dominican Republic.\n","Latitude":"19.205278","Longitude":"-69.336389","Url":"https://en.wikivoyage.org/wiki/Santa_Barbara_De_Samana","Country":"Dominican Republic"},{"Name":"Santiago de los Caballeros","Description":"Santiago de los Caballeros is a city in the Dominican Republic. The buildings are old and classic Caribbean Spanish style.\n","Latitude":"19.4667","Longitude":"-70.7000","Url":"https://en.wikivoyage.org/wiki/Santiago_de_los_Caballeros","Country":"Dominican Republic"},{"Name":"Sosua","Description":"Sosua is located in the Puerto Plata province of the Dominican Republic. German Jews settled this little pueblo in the early 1940s.  Many streets are named for Ashkenazic Jews.\n","Latitude":"19.749444","Longitude":"-70.517222","Url":"https://en.wikivoyage.org/wiki/Sosua","Country":"Dominican Republic"},{"Name":"Rio San Juan","Description":"Rio San Juan is a small city in the Dominican Republic, about 100km east of Puerto Plata.\n","Latitude":"19.64","Longitude":"-70.08","Url":"https://en.wikivoyage.org/wiki/Rio_San_Juan","Country":"Dominican Republic"},{"Name":"La Romana","Description":"La Romana is a city at the southeast end of the Dominican Republic.  The area along the coast is mostly taken up with various resorts, most notably Casa De Campo Resort. Cruise ships also port here.\n","Latitude":"18.43","Longitude":"-68.97","Url":"https://en.wikivoyage.org/wiki/La_Romana","Country":"Dominican Republic"},{"Name":"Bayahibe","Description":"Bayhibe is a small town in the Dominican Republic.\n","Latitude":"18.3667","Longitude":"-68.8333","Url":"https://en.wikivoyage.org/wiki/Bayahibe","Country":"Dominican Republic"},{"Name":"Bonao","Description":"Bonao is a village in the Dominican Republic.\n","Latitude":"18.9333","Longitude":"-70.4000","Url":"https://en.wikivoyage.org/wiki/Bonao","Country":"Dominican Republic"},{"Name":"Cabarete","Description":"Cabarete is a city in Dominican Republic. It is the city of kitesurfing and windsurfing and considered one of the best places to practice this sports in the Caribbean. Also has a great beach and this has a lot of great bars and restaurants.\n","Latitude":"19.751111","Longitude":"-70.408333","Url":"https://en.wikivoyage.org/wiki/Cabarete","Country":"Dominican Republic"},{"Name":"Jarabacoa","Description":"Jarabacoa is in the Dominican Republic.\n","Latitude":"19.119722222222","Longitude":"-70.638333333333","Url":"https://en.wikivoyage.org/wiki/Jarabacoa","Country":"Dominican Republic"},{"Name":"Las Terrenas","Description":"Las Terrenas is a city in Samaná Province on the northeast coast of the Dominican Republic.\n","Latitude":"19.32","Longitude":"-69.53","Url":"https://en.wikivoyage.org/wiki/Las_Terrenas","Country":"Dominican Republic"},{"Name":"Las Galeras","Description":"Las Galeras is a small village at the far end of the Samaná Peninsula in the Dominican Republic. It's famous for its world class lonely beaches, e.g. Playa Fronton or Playa Rincon.\n","Latitude":"19.3000","Longitude":"-69.2000","Url":"https://en.wikivoyage.org/wiki/Las_Galeras","Country":"Dominican Republic"},{"Name":"Miches","Description":"Miches is a small fishing village on Samana Bay in the Eastern Dominican Republic.\n","Latitude":"18.980000","Longitude":"-69.050000","Url":"https://en.wikivoyage.org/wiki/Miches","Country":"Dominican Republic"},{"Name":"Bahia de las Aguilas","Description":"Bahia de las Aguilas on the southwestern coast of the Dominican Republic.","Latitude":"17.8621","Longitude":"-71.6456","Url":"https://en.wikivoyage.org/wiki/Bahia_de_las_Aguilas","Country":"Dominican Republic"},{"Name":"Playa Bonita","Description":"Playa Bonita refers to a one-km stretch of spectacular beach shore about three km to the west of the fishing village and beach town of Las Terrenas in the Dominican Republic. The name appropriately translates to 'beautiful beach' because of the long curve of tan sand, scores of swaying coconut trees and an aquamarine surf that is shallower and prettier than at Las Terrenas.  Off the coast but well out of swimming distance are several small palm lined islands.\n","Latitude":"19.313","Longitude":"-69.568","Url":"https://en.wikivoyage.org/wiki/Playa_Bonita","Country":"Dominican Republic"}]