[{"Name":"Male","Description":"Malé (މާލ), pronounced Mah-lay, is the capital of Maldives.  The city occupies the entire islet of Malé and is located at the southern rim of North Male Atoll.\n","Latitude":"4.1666666666667","Longitude":"73.5","Url":"https://en.wikivoyage.org/wiki/Male","Country":"Maldives"},{"Name":"Seenu","Description":"Addu (also Seenu) is the southernmost atoll in the Maldives.  Hithadhoo, its capital, was the base of the short-lived United Suvadive Republic secessionist movement in 1959–1963.\n","Latitude":"-0.63333333333333","Longitude":"73.15","Url":"https://en.wikivoyage.org/wiki/Seenu","Country":"Maldives"},{"Name":"Kuredu","Description":"Kuredu (Kurendhoo) is an island located in the Lhaviyani Atoll of the Maldives.\n","Latitude":"5.333889","Longitude":"73.463889","Url":"https://en.wikivoyage.org/wiki/Kuredu","Country":"Maldives"},{"Name":"Mathiveri","Description":"\nMathiveri is a small island that belongs to North Ari atoll, Maldives. Only 900 citizens live there.\n","Latitude":"4.190278","Longitude":"72.747222","Url":"https://en.wikivoyage.org/wiki/Mathiveri","Country":"Maldives"},{"Name":"Rasdhoo","Description":"\nRasdhoo is a smallish island with 850 citizens and a capital of Alif Alif Atoll (or North Ari Atoll), Maldives.\n","Latitude":"4.262778","Longitude":"72.991389","Url":"https://en.wikivoyage.org/wiki/Rasdhoo","Country":"Maldives"},{"Name":"Thoddoo","Description":"\nThoddoo is an isolated inhabited island that administratively belongs to North Ari atoll, Maldives. It's quite large by Maldivian standards, it will take about an hour to circumvent it.\n","Latitude":"4.436944","Longitude":"72.959444","Url":"https://en.wikivoyage.org/wiki/Thoddoo","Country":"Maldives"},{"Name":"Ukulhas","Description":"Ukulhas (Dhivehi: އުކުޅަސް) island is one of the inhabited islands of North Ari Atoll in the Maldives. The island has been a travel destination since 2012; therefore, it has just a couple of inns and is somewhat hard to get to. Hence, if you enjoy diving, fishing and swimming without a crowd of fellow tourists, Ukulhas might be the destination you're looking for.\n","Latitude":"4.21","Longitude":"72.86","Url":"https://en.wikivoyage.org/wiki/Ukulhas","Country":"Maldives"}]