[{"Name":"Hagåtña","Description":"Hagåtña (pronounced huh-GAHT-nya) is the capital of Guam. It is the island's second smallest village in both area and population. From the 18th through mid 20th century, it was Guam's population center; but following heavy bombardment during WWII, much of the village was destroyed and a majority of Hagåtna's population permanently relocated to neighboring villages. Rebuilt to include a number of large government and office buildings, as well as storefronts, Hagåtña today is both the seat of local government and one of the island's major commercial districts. It has a population of only 1,100, but the surrounding metropolitan area is much larger.\n","Latitude":"13.483333","Longitude":"144.75","Url":"https://en.wikivoyage.org/wiki/Hag%C3%A5t%C3%B1a","Country":"Micronesia"},{"Name":"Kolonia","Description":"Kolonia is a city on the island of Pohnpei in the Federated States of Micronesia. The municipality of Kolonia has a population of around 6500 people, but it is the centre of an urban area of approximately 13000 people, including the nearby suburbs of Sokehs Island, Nett and Porakied village.\n","Latitude":"6.963889","Longitude":"158.208056","Url":"https://en.wikivoyage.org/wiki/Kolonia","Country":"Micronesia"},{"Name":"Koror","Description":"\n","Latitude":"7.360556","Longitude":"134.479167","Url":"https://en.wikivoyage.org/wiki/Koror","Country":"Micronesia"},{"Name":"Majuro","Description":"Majuro is the largest city in and capital of the Marshall Islands. The downtown area is located north of the airport on the eastern side of the main island. It consists of the smaller towns Delap, Uliga and Darrit which are reside on islands linked by small stretches of land.\n","Latitude":"7.0667","Longitude":"171.2667","Url":"https://en.wikivoyage.org/wiki/Majuro","Country":"Micronesia"},{"Name":"Melekeok","Description":"Melekeok is a city in the island country of Palau. It has served as Palau's capital city since 2006, despite its small population of about 250 people. It is the smallest national capital in the world by population.\n","Latitude":"7.4833","Longitude":"134.6000","Url":"https://en.wikivoyage.org/wiki/Melekeok","Country":"Micronesia"},{"Name":"Tarawa","Description":"Tarawa is an atoll in the central Pacific Ocean, and the location of the capital of Kiribati.\n","Latitude":"1.4","Longitude":"172.9666667","Url":"https://en.wikivoyage.org/wiki/Tarawa","Country":"Micronesia"},{"Name":"Nan Madol","Description":"Nan Madol is in Pohnpei, Federated States of Micronesia.\n","Latitude":"6.8461","Longitude":"158.3311","Url":"https://en.wikivoyage.org/wiki/Nan_Madol","Country":"Micronesia"},null]