[{"Name":"Phnom Penh","Description":"Phnom Penh, at the confluence of the Mekong and the Tonle Sap Rivers, is the capital of Cambodia and its largest city.\n","Latitude":"11.56522","Longitude":"104.92124","Url":"https://en.wikivoyage.org/wiki/Phnom_Penh","Country":"Cambodia"},{"Name":"Banlung","Description":"Banlung (បានលុង), although a small town, is the capital of Ratanakiri Province in Eastern Cambodia.\n","Latitude":"13.746666667","Longitude":"107.00444444","Url":"https://en.wikivoyage.org/wiki/Banlung","Country":"Cambodia"},{"Name":"Battambang","Description":"Battambang [dead link] is Cambodia's second most populous city, and a popular tourist destination due to the many nearby ancient temples, Buddhist shrines and the infamous bamboo railway. It is also the capital of Battambang Province.\n","Latitude":"13.1000","Longitude":"103.2000","Url":"https://en.wikivoyage.org/wiki/Battambang","Country":"Cambodia"},{"Name":"Kampot","Description":"Kampot is a small town (pop.~40,000) in southeast Cambodia and capital of the province of the same name. It is a gateway to Bokor National Park\n","Latitude":"10.600","Longitude":"104.166","Url":"https://en.wikivoyage.org/wiki/Kampot","Country":"Cambodia"},{"Name":"Koh Kong","Description":"Koh Kong, or Krong Khemarak Phoumin, is the capital of Koh Kong Province in Cambodia's  Cardamom Mountains. It is 8 km from Cham Yeam, which is connected by Cambodia's southernmost Thai border crossing to the Thai town of Hat Lek.\n","Latitude":"11.399167","Longitude":"103.494722","Url":"https://en.wikivoyage.org/wiki/Koh_Kong","Country":"Cambodia"},{"Name":"Kompong Thom","Description":"\nKampong Thom is the capital of Kampong Thom Province in Cambodia. It's about halfway between Phnom Penh and Siem Reap and thus most travellers only rush through on their way between these two major attractions. \n","Latitude":"12.7000","Longitude":"104.9000","Url":"https://en.wikivoyage.org/wiki/Kompong_Thom","Country":"Cambodia"},{"Name":"Kratie","Description":"Kratie (ក្រចេះ, pronounced kra-chey) is a tiny town in northeastern Cambodia. Despite its small size, it is the capital of the province of the same name.\n","Latitude":"12.48","Longitude":"106.03","Url":"https://en.wikivoyage.org/wiki/Kratie","Country":"Cambodia"},{"Name":"Siem Reap","Description":"\nThe town of Siem Reap (សៀមរាប), in northern Cambodia, is the primary access point for the Angkor Archaeological Park.\n","Latitude":"13.362222","Longitude":"103.859722","Url":"https://en.wikivoyage.org/wiki/Siem_Reap","Country":"Cambodia"},{"Name":"Sihanoukville","Description":"Sihanoukville (Krong Preah Seihanu), formerly Kompong Som and familiarly just Snookyville or even Snooky is a seaside town featuring Cambodia's best-known beaches.\n","Latitude":"10.6333","Longitude":"103.5000","Url":"https://en.wikivoyage.org/wiki/Sihanoukville","Country":"Cambodia"},{"Name":"Angkor Archaeological Park","Description":"\n","Latitude":"13.4333","Longitude":"103.8333","Url":"https://en.wikivoyage.org/wiki/Angkor_Archaeological_Park","Country":"Cambodia"},{"Name":"Bokor National Park","Description":"\nBokor National Park is in Cambodia.\n","Latitude":"10.8620","Longitude":"104.0322","Url":"https://en.wikivoyage.org/wiki/Bokor_National_Park","Country":"Cambodia"},{"Name":"Kampong Cham","Description":"Kampong Cham is the seventh largest city in Cambodia and the capital of the province of the same name.\n","Latitude":"12.0000","Longitude":"105.4500","Url":"https://en.wikivoyage.org/wiki/Kampong_Cham","Country":"Cambodia"},{"Name":"Kep","Description":"Kep is a seaside resort area in Cambodia and includes the small town of the same name which is the capital of Kep Province.\n","Latitude":"10.4833","Longitude":"104.3167","Url":"https://en.wikivoyage.org/wiki/Kep","Country":"Cambodia"},{"Name":"Krek","Description":"Krek (also known as Kraek; pronounced as cry-eek) is a town in the Mekong Lowlands and Central Plains region of Cambodia.\n","Latitude":"11.793333","Longitude":"105.884167","Url":"https://en.wikivoyage.org/wiki/Krek","Country":"Cambodia"},{"Name":"Koh Ker","Description":"Koh Ker is to the north of Siem Reap, Cambodia.\n","Latitude":"13.783333","Longitude":"104.533333","Url":"https://en.wikivoyage.org/wiki/Koh_Ker","Country":"Cambodia"},{"Name":"Poipet","Description":"Poipet hosts Cambodia's main border crossing with Thailand, which links northwest Cambodia to Aranyaprathet, and hence Bangkok. Cross-border activity has made the town grow to be larger than its provincial capital, Sisophon.\n","Latitude":"13.6500","Longitude":"102.5667","Url":"https://en.wikivoyage.org/wiki/Poipet","Country":"Cambodia"},{"Name":"Preah Vihear","Description":"Prasat Preah Vihear (ព្រះវិហារ) is a Khmer (Cambodian) temple crowning a 525-m cliff in the Dângrêk Mountains in Cambodia, across the border from Si Saket and Kantharalak in northeastern Thailand. It is also the name of the surrounding province.\n","Latitude":"14.3948","Longitude":"104.679944","Url":"https://en.wikivoyage.org/wiki/Preah_Vihear","Country":"Cambodia"},{"Name":"Tonle Sap Lake","Description":"Tonle Sap Lake is in Cambodia.\n","Latitude":"12.883333333333","Longitude":"104.06666666667","Url":"https://en.wikivoyage.org/wiki/Tonle_Sap_Lake","Country":"Cambodia"}]