[{"Name":"Panama City","Description":"Panama City is the capital of Panama.\n","Latitude":"8.9524","Longitude":"-79.535393","Url":"https://en.wikivoyage.org/wiki/Panama_City","Country":"Panama","Photo":"https://upload.wikimedia.org/wikipedia/commons/a/a7/Panama_city_banner.jpg"},{"Name":"Balboa","Description":"Balboa is the separated from Panama City by the Cerro Ancon (Ancon Hill), one of Panama City's skyline landmarks. Between the entrance of the Panama Canal and the City, it's the home of the Panama Canal Administration ACP [1], and part of the what was called \"Canal Zone\" when the Americans still ran the Canal. Now the official term is 'areas revertidas' or reverted areas.\n","Latitude":"8.9500","Longitude":"-79.5667","Url":"https://en.wikivoyage.org/wiki/Balboa","Country":"Panama","Photo":"https://upload.wikimedia.org/wikipedia/commons/7/7b/Caribbean_default_banner.jpg"},{"Name":"Boquete","Description":"Boquete is a village in Chiriqui province, in the Pacific West of Panama.\n","Latitude":"8.78","Longitude":"-82.44","Url":"https://en.wikivoyage.org/wiki/Boquete","Country":"Panama","Photo":"https://upload.wikimedia.org/wikipedia/commons/8/85/Boquete_%28Panama%29_banner_Hummingbird_feeding.jpg"},{"Name":"Boca Chica","Description":"Boca Chica is a city in Gulf of Chiriquí.\n","Latitude":"8.2167","Longitude":"-82.2167","Url":"https://en.wikivoyage.org/wiki/Boca_Chica","Country":"Panama","Photo":"https://upload.wikimedia.org/wikipedia/commons/7/7b/Caribbean_default_banner.jpg"},{"Name":"Colon (Panama)","Description":"Colón is a city in Central Panama. The town is in poor condition and notorious for its high crime rate, but it is worth driving around to look at the culture, people and architecture.\n","Latitude":"9.3333","Longitude":"-79.9000","Url":"https://en.wikivoyage.org/wiki/Colon_(Panama)","Country":"Panama","Photo":"https://upload.wikimedia.org/wikipedia/commons/7/7b/Caribbean_default_banner.jpg"},{"Name":"David (Panama)","Description":"David is the capital city in the province of Chiriqui province in the Pacific West of Panama. It is on the Pan American Highway and is one of the most prosperous areas of Panama, with good infrastructure.\n","Latitude":"8.433333","Longitude":"-82.433333","Url":"https://en.wikivoyage.org/wiki/David_(Panama)","Country":"Panama","Photo":"https://upload.wikimedia.org/wikipedia/commons/7/7b/Caribbean_default_banner.jpg"},{"Name":"Gamboa","Description":"Gamboa is a small town in Central Panama.\n","Latitude":"9.117","Longitude":"-79.7","Url":"https://en.wikivoyage.org/wiki/Gamboa","Country":"Panama","Photo":"https://upload.wikimedia.org/wikipedia/commons/7/7b/Caribbean_default_banner.jpg"},{"Name":"Portobelo","Description":"Portobelo is a port city in Central Panama. It is located on the northern part of the Isthmus of Panama.\n","Latitude":"9.55403","Longitude":"-79.65483","Url":"https://en.wikivoyage.org/wiki/Portobelo","Country":"Panama","Photo":"https://upload.wikimedia.org/wikipedia/commons/f/f5/Portobelo_banner_Fuerte_Santiago_de_la_Gloria.jpg"},{"Name":"Coiba National Marine Park","Description":"Coiba National Marine Park in the Gulf of Chiriqui in the Pacific West of Panama.\n","Latitude":"7.46","Longitude":"-81.78","Url":"https://en.wikivoyage.org/wiki/Coiba_National_Marine_Park","Country":"Panama","Photo":"https://upload.wikimedia.org/wikipedia/commons/7/7b/Caribbean_default_banner.jpg"},{"Name":"La Amistad International Park","Description":"The La Amistad International Park, or in Spanish Parque Internacional La Amistad, formerly the La Amistad National Park, is an transboundary protected area in Latin America, management of which is shared between Costa Rica and Panama\n","Latitude":"9.407083","Longitude":"-82.938806","Url":"https://en.wikivoyage.org/wiki/La_Amistad_International_Park","Country":"Panama","Photo":"https://upload.wikimedia.org/wikipedia/commons/7/7b/Caribbean_default_banner.jpg"},{"Name":"Parque Nacional Marino Golfo de Chiriquí","Description":"Parque Nacional Marino Golfo de Chiriquí is a national park in the Gulf of Chiriquí in the Pacific West of Panama.\n","Latitude":"7.3244","Longitude":"-81.8000","Url":"https://en.wikivoyage.org/wiki/Parque_Nacional_Marino_Golfo_de_Chiriqu%C3%AD","Country":"Panama","Photo":"https://upload.wikimedia.org/wikipedia/commons/7/7b/Caribbean_default_banner.jpg"},{"Name":"El Valle","Description":"El Valle de Anton is a town in Cocle province, Central Panama.\n","Latitude":"8.6008","Longitude":"-80.1303","Url":"https://en.wikivoyage.org/wiki/El_Valle","Country":"Panama","Photo":"https://upload.wikimedia.org/wikipedia/commons/7/7b/Caribbean_default_banner.jpg"},{"Name":"Pearl Islands","Description":"The Pearl Islands (Spanish: Archipielago de las Perlas) are a region in the Pacific ocean off the coast of Panama. Made famous as the site for three seasons of the reality television show Survivor, the archipelago is a combination of beautiful islands with pristine virgin forest and sandy white beaches. Contadora Island is the most developed one, with a paved airstrip and 2 high-end Resorts and many private houses.\n","Latitude":"8.3333","Longitude":"-79.1167","Url":"https://en.wikivoyage.org/wiki/Pearl_Islands","Country":"Panama","Photo":"https://upload.wikimedia.org/wikipedia/commons/7/7b/Caribbean_default_banner.jpg"},{"Name":"San Blas Islands","Description":"The San Blas Islands is a group of islands which are located just off the Caribbean coast of Eastern Panama. The indigenous Kuna Yala tribe have self governing authority over the islands.\n","Latitude":"9.57","Longitude":"-78.82","Url":"https://en.wikivoyage.org/wiki/San_Blas_Islands","Country":"Panama","Photo":"https://upload.wikimedia.org/wikipedia/commons/2/28/San_Blas_banner.jpg"},{"Name":"Taboga","Description":"\nTaboga is an island in Central Panama. It is one of the favorite escapes for residents of Panama City, who enjoy the beach, hiking, nature, fishing, and boat charters. The island has a charming village with a whitewashed church, a few narrow streets with several small restaurants, small hotels and great views to Panama City from the highest point on the island which stands at approximately 300 m.\n","Latitude":"8.7833","Longitude":"-79.5500","Url":"https://en.wikivoyage.org/wiki/Taboga","Country":"Panama","Photo":"https://upload.wikimedia.org/wikipedia/commons/7/7b/Caribbean_default_banner.jpg"},{"Name":"Volcan Barú","Description":"Volcano Baru or Volcan Barú is in Chiriqui Province of the Pacific West in Panama.\n","Latitude":"8.808","Longitude":"-82.543","Url":"https://en.wikivoyage.org/wiki/Volcan_Bar%C3%BA","Country":"Panama","Photo":"https://upload.wikimedia.org/wikipedia/commons/7/7b/Caribbean_default_banner.jpg"}]