[{"Name":"Khartoum","Description":"Khartoum (Arabic: الخرطوم Al-Khartum) is the capital of Sudan and is located where the Blue and White Niles merge to form the Nile. The huge, spread-out city is actually made out of three distinct cities (Khartoum, Khartoum North or Bahri, and Omdurman) which are divided by the Nile and its two arms. The Blue Nile flows between Khartoum and Bahri, the White Nile between Khartoum and Omdurman, and the merged Nile between Bahri and Omdurman. The confluence of the Blue and White Nile, known as Al-Mogran, lies just north of the bridge between Khartoum and Omdurman.\n","Latitude":"15.59501","Longitude":"32.53550","Url":"https://en.wikivoyage.org/wiki/Khartoum","Country":"Sudan","Photo":"https://upload.wikimedia.org/wikipedia/commons/b/b4/Khartoum_banner.jpg"},{"Name":"Abyei","Description":"Abyei is a town that is administered by Sudan and claimed by South Sudan. It has been one of the flashpoints in the ongoing conflict between the two countries since the Sudanese Civil Wars, as it is disputed between the two countries.\n","Latitude":"9.6","Longitude":"28.43","Url":"https://en.wikivoyage.org/wiki/Abyei","Country":"Sudan","Photo":"https://upload.wikimedia.org/wikipedia/commons/f/f2/Pagebanner_default.jpg"},null,null,{"Name":"Kassala","Description":"Kassala is a city in Kassala State Wilayat Kassala in Sudan.\n","Latitude":"15.45","Longitude":"36.4","Url":"https://en.wikivoyage.org/wiki/Kassala","Country":"Sudan","Photo":"https://upload.wikimedia.org/wikipedia/commons/9/97/Mena-asia_default_banner.jpg"},{"Name":"Nyala","Description":"Nyala is a large city in Darfur.\n","Latitude":"12.05","Longitude":"24.883333333333","Url":"https://en.wikivoyage.org/wiki/Nyala","Country":"Sudan","Photo":"https://upload.wikimedia.org/wikipedia/commons/9/97/Mena-asia_default_banner.jpg"},{"Name":"Port Sudan","Description":"Port Sudan is a city in Sudan next to the Red Sea.\n","Latitude":"19.6167","Longitude":"37.2167","Url":"https://en.wikivoyage.org/wiki/Port_Sudan","Country":"Sudan","Photo":"https://upload.wikimedia.org/wikipedia/commons/9/97/Mena-asia_default_banner.jpg"},{"Name":"Jebel Barkal","Description":"Not to be confused with the archaeological site Meroë much further upriver.\n","Latitude":"18.483333","Longitude":"31.816667","Url":"https://en.wikivoyage.org/wiki/Jebel_Barkal","Country":"Sudan","Photo":"https://upload.wikimedia.org/wikipedia/commons/7/78/WV_banner_Merowe_Jebel_Barkal_pyramids.jpg"},{"Name":"Meroë","Description":"Meroë is an ancient city along the eastern bank of the Nile River in Northern Sudan, approximately 200 km (120 mi) northeast of Khartoum. The site is home to more than 200 Nubian pyramids in three separate groups. \n","Latitude":"16.94","Longitude":"33.75","Url":"https://en.wikivoyage.org/wiki/Mero%C3%AB","Country":"Sudan","Photo":"https://upload.wikimedia.org/wikipedia/commons/9/97/Mena-asia_default_banner.jpg"}]