[{"Name":"Garowe","Description":"\nGarowe (Somali: Garoowe, Arabic: غاروي‎) is the administrative capital of the autonomous Puntland region in northeastern Somalia.\n","Latitude":"8.4","Longitude":"48.483333","Url":"https://en.wikivoyage.org/wiki/Garowe","Country":"Somalia","Photo":"https://upload.wikimedia.org/wikipedia/commons/9/97/Mena-asia_default_banner.jpg"},{"Name":"Bosaso","Description":"Bosaso is the economic capital of Puntland, northern Somalia.\n","Latitude":"11.283333333333","Longitude":"49.183333333333","Url":"https://en.wikivoyage.org/wiki/Bosaso","Country":"Somalia","Photo":"https://upload.wikimedia.org/wikipedia/commons/8/8c/S-amer_africa_default_banner.jpg"},{"Name":"Mogadishu","Description":"Mogadishu (Somali: Muqdisho; Arabic: مقديشو‎ Maqadīshū) is the capital of Somalia, a major battleground of the civil war which has ravaged the country since 1991.\n","Latitude":"2.0408","Longitude":"45.3425","Url":"https://en.wikivoyage.org/wiki/Mogadishu","Country":"Somalia","Photo":"https://upload.wikimedia.org/wikipedia/commons/d/d7/Mogadishu_banner_3.jpg"},{"Name":"Kismayo","Description":"Kismayo (also Kismaayo, Kismayo, Kismayu and Chisimayu) is a port city in Southern Somalia.\n","Latitude":"-0.3500","Longitude":"42.5500","Url":"https://en.wikivoyage.org/wiki/Kismayo","Country":"Somalia","Photo":"https://upload.wikimedia.org/wikipedia/commons/8/8c/S-amer_africa_default_banner.jpg"},{"Name":"Hargeisa","Description":"Hargeisa is the capital of the self-proclaimed republic of Somaliland. In recent years, it has been one of the safest places in what the rest of the world still officially considers to be Somalia.\n","Latitude":"9.5511","Longitude":"44.0675","Url":"https://en.wikivoyage.org/wiki/Hargeisa","Country":"Somalia","Photo":"https://upload.wikimedia.org/wikipedia/commons/e/e7/Hargeisa_Banner.jpg"},{"Name":"Berbera","Description":"Berbera is a large city in the autonomous region of Somaliland. Popular golden beaches such as Bathaale and Batalaale have earned the city the nickname beach city.\n","Latitude":"10.435556","Longitude":"45.016389","Url":"https://en.wikivoyage.org/wiki/Berbera","Country":"Somalia","Photo":"https://upload.wikimedia.org/wikipedia/commons/5/5b/Berbera_banner.jpg"},{"Name":"Las Anod","Description":"Las Anod (Arabic: لاسعنود‎) is the capital of Khatumo.\n","Latitude":"8.475556","Longitude":"47.358333","Url":"https://en.wikivoyage.org/wiki/Las_Anod","Country":"Somalia","Photo":"https://upload.wikimedia.org/wikipedia/commons/8/8c/S-amer_africa_default_banner.jpg"}]