[{"Name":"Yaoundé","Description":"Yaoundé is the capital of Cameroon, and the country's second most populous city. It is smaller than the economic centre (Douala), but still a bustling city. Called the city on seven hills, Yaoundé is home to people from all over Cameroon.\n","Latitude":"3.866667","Longitude":"11.516667","Url":"https://en.wikivoyage.org/wiki/Yaound%C3%A9","Country":"Cameroon"},{"Name":"Bafoussam","Description":"Bafoussam is the capital of the West Region, in Northwest Highlands, Cameroon.\n","Latitude":"5.4667","Longitude":"10.4167","Url":"https://en.wikivoyage.org/wiki/Bafoussam","Country":"Cameroon"},{"Name":"Bamenda","Description":"Bamenda is a city in Cameroon.\n","Latitude":"5.9333","Longitude":"10.1667","Url":"https://en.wikivoyage.org/wiki/Bamenda","Country":"Cameroon"},{"Name":"Buea","Description":"\nBuea is a city in Coastal Cameroon.\n","Latitude":"4.1500","Longitude":"9.2333","Url":"https://en.wikivoyage.org/wiki/Buea","Country":"Cameroon"},{"Name":"Douala","Description":"Douala is the largest city and the commercial centre of Cameroon.\n","Latitude":"4.05","Longitude":"9.7","Url":"https://en.wikivoyage.org/wiki/Douala","Country":"Cameroon"},{"Name":"Garoua","Description":"Garoua is a port city lying on the Benue River in Northern Cameroon. Third biggest city in Cameroon.\n","Latitude":"9.3000","Longitude":"13.4000","Url":"https://en.wikivoyage.org/wiki/Garoua","Country":"Cameroon"},{"Name":"Limbe","Description":"Limbe is in the South West Region of Cameroon. It is a cosmopolitan city with a blend of various cultures which originated due to the hospitality of the people and western influence. This is one of the first cities in Cameroon to get in contact with the whites. The sanitation in Limbe is the best in Cameroon, so it has been nicknamed \"clean city\".\n","Latitude":"4.016667","Longitude":"9.216667","Url":"https://en.wikivoyage.org/wiki/Limbe","Country":"Cameroon"},{"Name":"Ngaoundere","Description":"\nNgaoundéré is the capital of Adamaoua region.\n","Latitude":"7.316667","Longitude":"13.583333","Url":"https://en.wikivoyage.org/wiki/Ngaoundere","Country":"Cameroon"},{"Name":"Dja Faunal Reserve","Description":"Dja Faunal Reserve, the in the south-eastern part of Cameroon, is a UNESCO World Heritage Site.\n","Latitude":"3","Longitude":"13","Url":"https://en.wikivoyage.org/wiki/Dja_Faunal_Reserve","Country":"Cameroon"},null,null,{"Name":"Ngoketunjia","Description":"Ngoketunjia is a division in the Northwest Highlands region of Cameroon.\n","Latitude":"6.0000","Longitude":"10.4167","Url":"https://en.wikivoyage.org/wiki/Ngoketunjia","Country":"Cameroon"},null]