[{"Name":"Riga","Description":"Riga is the financial, creative, and cultural center of Latvia. It is the capital and the largest city in Latvia, it is also the largest city in the Baltic States. The city lies on the Gulf of Riga, at the mouth of Daugava, Riga has an population of about 640,000 inhabitants (2015). It is home to one in three Latvians. Part of many empires throughout history, each of which has left its mark on the city, today Riga is a city with many faces. It is famous for Art Nouveau and wooden architecture. Riga's historical center is listed as UNESCO World Heritage Site.\n","Latitude":"56.948889","Longitude":"24.106389","Url":"https://en.wikivoyage.org/wiki/Riga","Country":"Latvia"},{"Name":"Sigulda","Description":"Sigulda is administratively in the Riga region, however culturally a part of the Vidzeme region.\n","Latitude":"57.1500","Longitude":"24.8667","Url":"https://en.wikivoyage.org/wiki/Sigulda","Country":"Latvia"},{"Name":"Cēsis","Description":"\nCēsis (Livonian: Venden, German: Wenden) is a town in Gauja National Park, in the Vidzeme region of Latvia, located on the Gauja river, roughly 100 km to the east of the capital Riga..\n","Latitude":"57.3167","Longitude":"25.2667","Url":"https://en.wikivoyage.org/wiki/C%C4%93sis","Country":"Latvia"},{"Name":"Jūrmala","Description":"Jūrmala is a resort town in Latvia. It claims to have the longest beach in Northern Europe.\n","Latitude":"56.9667","Longitude":"23.7500","Url":"https://en.wikivoyage.org/wiki/J%C5%ABrmala","Country":"Latvia"},{"Name":"Daugavpils","Description":"Daugavpils is the second largest city in Latvia, after Riga.\n","Latitude":"55.875000","Longitude":"26.535556","Url":"https://en.wikivoyage.org/wiki/Daugavpils","Country":"Latvia"},{"Name":"Ventspils","Description":"Ventspils is a city in Kurzeme on the western coast of Latvia and one of Europe's busiest ports.\n","Latitude":"57.3894","Longitude":"21.5605","Url":"https://en.wikivoyage.org/wiki/Ventspils","Country":"Latvia"},{"Name":"Liepāja","Description":"Liepāja (pronounced lee-ah-pa-yah) is a city on Latvia's Baltic coast.\n","Latitude":"56.511667","Longitude":"21.013889","Url":"https://en.wikivoyage.org/wiki/Liep%C4%81ja","Country":"Latvia"},{"Name":"Kuldīga","Description":"Kuldiga (Kuldīga) is a town on the Venta River in the Kurzeme region (formerly Courland) of western Latvia.\n","Latitude":"56.9667","Longitude":"21.9833","Url":"https://en.wikivoyage.org/wiki/Kuld%C4%ABga","Country":"Latvia"},{"Name":"Madona","Description":"Madona is a town in the center of eastern Latvia, in the eastern part of the Vidzeme region.\n","Latitude":"56.8500","Longitude":"26.2167","Url":"https://en.wikivoyage.org/wiki/Madona","Country":"Latvia"},null,null]