[{"Name":"Addis Ababa","Description":"Addis Ababa (Amharic: አዲስ አበባ, Oromo: Finfinne) is the capital and largest city of Ethiopia. It had a population of 3.4 million in 2007 and it is growing very rapidly like many African cities.\n","Latitude":"9.01039","Longitude":"38.76140","Url":"https://en.wikivoyage.org/wiki/Addis_Ababa","Country":"Ethiopia"},{"Name":"Adama","Description":"Adama, also known as Nazareth or Nazret, was the capital city of the Oromia region of Ethiopia from 2003 to 2006, at which time the capital was moved back to Finfine (Addis Ababa).  It is a popular weekend destination for residents of Addis Ababa and hosts many governmental and non-governmental conferences.\n","Latitude":"8.55","Longitude":"39.266666666667","Url":"https://en.wikivoyage.org/wiki/Adama","Country":"Ethiopia"},{"Name":"Axum","Description":"Axum (አክሱም, also spelt Aksum) is a city of 56,000 in the Tigray (or Tigrai) region of Ethiopia, just south of Eritrea, with which it shares the language of Tigrinya. \n","Latitude":"14.1167","Longitude":"38.7333","Url":"https://en.wikivoyage.org/wiki/Axum","Country":"Ethiopia"},{"Name":"Bahir Dar","Description":"Bahir Dar, also spelt Bahar Dar, on the southern shore of Lake Tana, the biggest lake in Ethiopia, is the third largest city in the nation, after Addis Ababa and Dire Dawa, with a population of a quarter of a million. It's the capital of the Amhara region, dominated by the Amhara people, the Ethiopia's second largest grouping; the Ethiopian official language is Amharic. Bahir Dar is a clean and well-maintained city by African standards. Even the cheaper accommodation has neat, but basic, services.\n","Latitude":"11.6000","Longitude":"37.3833","Url":"https://en.wikivoyage.org/wiki/Bahir_Dar","Country":"Ethiopia"},{"Name":"Dire Dawa","Description":"Dire Dawa is a second largest city in Ethiopia with 420,000 people.\n","Latitude":"9.6000","Longitude":"41.8667","Url":"https://en.wikivoyage.org/wiki/Dire_Dawa","Country":"Ethiopia"},{"Name":"Gondar","Description":"Gondar (also spelled Gonder) is an historic royal city of Ethiopia, in the Amhara region. It was the home of many emperors and princesses who ruled the country from the 12th century to the last decade of the 20th century, including Suseneos, Fasiledes, Empress Mentwab, Iyasu I, Tewodros II and Empress Taitu. Leading the list of its attractions is Fasil Ghebbi (the Royal Enclosure), containing several castles and palaces from the 17th and 18th centuries.\n","Latitude":"12.6000","Longitude":"37.4667","Url":"https://en.wikivoyage.org/wiki/Gondar","Country":"Ethiopia"},{"Name":"Harar","Description":"\n","Latitude":"9.3167","Longitude":"42.1333","Url":"https://en.wikivoyage.org/wiki/Harar","Country":"Ethiopia"},{"Name":"Lalibela","Description":"Lalibela is a rural town of 15,000 people in a stunning setting at an elevation of 2,600 m (8,500 ft) in the midst of the Lasta mountains in the eastern highlands of Northern Ethiopia. Its unique and remarkable monolithic churches hewn from living rock, most built more than 900 years ago, are one of Ethiopia's leading attractions and were declared a UNESCO World Heritage site in 1978.\n","Latitude":"12.0333","Longitude":"39.0333","Url":"https://en.wikivoyage.org/wiki/Lalibela","Country":"Ethiopia"},{"Name":"Mekele","Description":"Mekele is in the Tigrayan Highlands in Ethiopia. It is the capital of the Tigray region and has a population of 200,000.\n","Latitude":"13.4833","Longitude":"39.4667","Url":"https://en.wikivoyage.org/wiki/Mekele","Country":"Ethiopia"},{"Name":"Abijatta Shalla Lakes National Park","Description":"Abijatta-Shalla Lakes National Park is in the Oromia region of Ethiopia, about 200 km south of the capital of Addis Ababa.\n","Latitude":"7.5","Longitude":"38.5","Url":"https://en.wikivoyage.org/wiki/Abijatta_Shalla_Lakes_National_Park","Country":"Ethiopia"},{"Name":"Awash National Park","Description":"Awash National Park is in Ethiopia. The Lower Valley of the Awash, a site where some of the earliest human remains have been found, was declared a UNESCO World Heritage site in 1980.\n","Latitude":"9","Longitude":"40","Url":"https://en.wikivoyage.org/wiki/Awash_National_Park","Country":"Ethiopia"},{"Name":"Mago National Park","Description":"Mago National Park [dead link] is in south-western Ethiopia, towards the border with South Sudan and Kenya. It is east of the Omo River, and stretches south towards the Chew Bahir basin. Omo National Park is on the western side of the Omo River.\n","Latitude":"5.6667","Longitude":"36.1667","Url":"https://en.wikivoyage.org/wiki/Mago_National_Park","Country":"Ethiopia"},{"Name":"Omo National Park","Description":"Omo National Park [dead link] is in south-western Ethiopia, towards the border with South Sudan and Kenya, and west of the Omo River. Mago National Park is on the eastern side of the Omo River. The Lower Valley of the Omo, a site where prehistoric human remains have been found, was declared a UNESCO World Heritage site in 1980.\n","Latitude":"6.0000","Longitude":"35.8333","Url":"https://en.wikivoyage.org/wiki/Omo_National_Park","Country":"Ethiopia"},{"Name":"Simien National Park","Description":"\nSimien National Park, also known as Simien Mountains National Park, is in Amhara in northern Ethiopia. It was one of the first sites added to the UNESCO World Heritage List in 1978. It features spectacular scenery viewed from its peaks and escarpments and fascinating gelada monkeys and other wildlife. The park headquarters are outside the park in Debark, the nearest town, on the main road between Gondar (to the south) and Shire and Axum (to the north in Tigray).\n","Latitude":"13.18","Longitude":"38.06","Url":"https://en.wikivoyage.org/wiki/Simien_National_Park","Country":"Ethiopia"},{"Name":"Sodere","Description":"Sodere is a spa town (population 1,900) in Ethiopia that has natural hot springs.  It is a weekend get-away place for people from Addis Ababa.\n","Latitude":"8.4000","Longitude":"39.3833","Url":"https://en.wikivoyage.org/wiki/Sodere","Country":"Ethiopia"},{"Name":"Konso","Description":"Konso is a small town in Southern Ethiopia. It was declared a UNESCO World Heritage site in 2011.\n","Latitude":"5.2500","Longitude":"37.4833","Url":"https://en.wikivoyage.org/wiki/Konso","Country":"Ethiopia"},{"Name":"Danakil Depression","Description":"The Danakil Depression is a desert area in the Afar region of northeastern Ethiopia, north of the Great Rift Valley that is widely known locally as the Dallol depression.\n","Latitude":"13.82","Longitude":"40.47","Url":"https://en.wikivoyage.org/wiki/Danakil_Depression","Country":"Ethiopia"}]