[{"Name":"Maseru","Description":"Maseru is the capital of and largest city in Lesotho and is very close to the north western border with South Africa. Although there isn't a huge deal to see in Maseru, it is well worth stopping here upon entry into Lesotho to stock up before venturing further in (where there are very, very few Western-style shops).\n","Latitude":"-29.31","Longitude":"27.48","Url":"https://en.wikivoyage.org/wiki/Maseru","Country":"Lesotho","Photo":"https://upload.wikimedia.org/wikipedia/commons/3/37/Maseru_banner.jpg"},{"Name":"Hlotse","Description":"Hlotse or Leribe is a market town in the north of Lesotho. Established in the 19th century by a British missionary, this town on the banks of the Hlotse river was one of the main centres in colonial days. Today it's home to some 25,000 people and is a good place for travellers to find whatever last supplies they need to head out into Lesotho's gorgeous highlands.\n","Latitude":"-28.873361","Longitude":"28.041583","Url":"https://en.wikivoyage.org/wiki/Hlotse","Country":"Lesotho","Photo":"https://upload.wikimedia.org/wikipedia/commons/8/8c/S-amer_africa_default_banner.jpg"},{"Name":"Mafeteng","Description":"\nMafeteng is a city in Lesotho. It is the capital of the district by the same name.\n","Latitude":"-29.8167","Longitude":"27.2500","Url":"https://en.wikivoyage.org/wiki/Mafeteng","Country":"Lesotho","Photo":"https://upload.wikimedia.org/wikipedia/commons/f/f2/Pagebanner_default.jpg"},{"Name":"Mohale's Hoek","Description":"Mohale's Hoek is a city in Lesotho.\n","Latitude":"-30.1500","Longitude":"27.4833","Url":"https://en.wikivoyage.org/wiki/Mohale%27s_Hoek","Country":"Lesotho","Photo":"https://upload.wikimedia.org/wikipedia/commons/8/8c/S-amer_africa_default_banner.jpg"},{"Name":"Mokhotlong","Description":"Mokhotlong is a city in Lesotho\n","Latitude":"-29.2833","Longitude":"29.0667","Url":"https://en.wikivoyage.org/wiki/Mokhotlong","Country":"Lesotho","Photo":"https://upload.wikimedia.org/wikipedia/commons/8/8c/S-amer_africa_default_banner.jpg"},null,{"Name":"Quthing","Description":"Quthing is a town in the south of Lesotho\n","Latitude":"-30.4000","Longitude":"27.7000","Url":"https://en.wikivoyage.org/wiki/Quthing","Country":"Lesotho","Photo":"https://upload.wikimedia.org/wikipedia/commons/8/8c/S-amer_africa_default_banner.jpg"},{"Name":"Teyateyaneng","Description":"Teyateyaneng (or TY as it is affectionately known to the locals) is a town near Lesotho's north-western border. It is a craft centre, and has a good market for locally produced goods and crafts.\n","Latitude":"-29.1500","Longitude":"27.7500","Url":"https://en.wikivoyage.org/wiki/Teyateyaneng","Country":"Lesotho","Photo":"https://upload.wikimedia.org/wikipedia/commons/8/8c/S-amer_africa_default_banner.jpg"},{"Name":"Thaba-Tseka","Description":"Thaba-Tseka is a city in Lesotho.\n","Latitude":"-29.5167","Longitude":"28.6000","Url":"https://en.wikivoyage.org/wiki/Thaba-Tseka","Country":"Lesotho","Photo":"https://upload.wikimedia.org/wikipedia/commons/8/8c/S-amer_africa_default_banner.jpg"},{"Name":"Oxbow (Lesotho)","Description":"Oxbow is a town in northern Lesotho.\n","Latitude":"-28.7708","Longitude":"28.6397","Url":"https://en.wikivoyage.org/wiki/Oxbow_(Lesotho)","Country":"Lesotho","Photo":"https://upload.wikimedia.org/wikipedia/commons/8/8c/S-amer_africa_default_banner.jpg"},{"Name":"Sehlabathebe National Park","Description":"\nSehlabathebe National Park is in Lesotho. Together with several national parks in South Africa it forms the UNESCO World Heritage site \"Maloti Drakensberg Tranboundary World Heritage Site\".\n","Latitude":"-29.495","Longitude":"29.213","Url":"https://en.wikivoyage.org/wiki/Sehlabathebe_National_Park","Country":"Lesotho","Photo":"https://upload.wikimedia.org/wikipedia/commons/thumb/a/a2/WV_banner_Maloti_Drakensberg.jpg/2560px-WV_banner_Maloti_Drakensberg.jpg"},{"Name":"Ts'ehlanyane National Park","Description":"Ts'ehlanyane National Park is in the Leribe district of Lesotho.\n","Latitude":"-29.0000","Longitude":"28.4167","Url":"https://en.wikivoyage.org/wiki/Ts%27ehlanyane_National_Park","Country":"Lesotho","Photo":"https://upload.wikimedia.org/wikipedia/commons/7/78/Banner_Ts%27ehlanyane_National_Park.jpg"},{"Name":"Katse","Description":"Katse is a tiny village in the Lesotho Highlands. It is near and gives its name to the Katse Dam, a huge manmade reservoir built to sell water to neighbouring South Africa.\n","Latitude":"-29.335","Longitude":"28.487","Url":"https://en.wikivoyage.org/wiki/Katse","Country":"Lesotho","Photo":"https://upload.wikimedia.org/wikipedia/commons/8/8c/S-amer_africa_default_banner.jpg"},{"Name":"Malealea","Description":"Malealea is a small village in western Lesotho.\n","Latitude":"-29.818","Longitude":"27.618","Url":"https://en.wikivoyage.org/wiki/Malealea","Country":"Lesotho","Photo":"https://upload.wikimedia.org/wikipedia/commons/8/8c/S-amer_africa_default_banner.jpg"},{"Name":"Morija","Description":"Morija is a tiny town in north western Lesotho, about 40 miles south of Maseru. Tim Couzens' novel Murder at Morija tells of the 1920 poisoning of one of Lesotho's first missionaries. It's well worth a read before you visit! It is highly unlikely that you will be poisoned on your visit.\n","Latitude":"-29.6333","Longitude":"27.5000","Url":"https://en.wikivoyage.org/wiki/Morija","Country":"Lesotho","Photo":"https://upload.wikimedia.org/wikipedia/commons/8/8c/S-amer_africa_default_banner.jpg"},{"Name":"Oxbow (Lesotho)","Description":"Oxbow is a town in northern Lesotho.\n","Latitude":"-28.7708","Longitude":"28.6397","Url":"https://en.wikivoyage.org/wiki/Oxbow_(Lesotho)","Country":"Lesotho","Photo":"https://upload.wikimedia.org/wikipedia/commons/8/8c/S-amer_africa_default_banner.jpg"},{"Name":"Semonkong","Description":"Semonkong is a small town in central Lesotho. In Sesotho, Semonkong literally means Place of Smoke, which is a reference to the huge 200m Maletsunyane Falls which is close to the town.\n","Latitude":"-29.8433","Longitude":"28.050372","Url":"https://en.wikivoyage.org/wiki/Semonkong","Country":"Lesotho","Photo":"https://upload.wikimedia.org/wikipedia/commons/8/8c/S-amer_africa_default_banner.jpg"},{"Name":"Thaba Bosiu","Description":"Thaba Bosiu is the mountain stronghold from where King Moeshoeshoe established and ruled over the Kingdom of Lesotho in the 19th century, fighting off wave after wave of attacks by white settlers and hostile African armies. Still today, the kings and queens of Lesotho are buried here.\n","Latitude":"-29.3500","Longitude":"27.6667","Url":"https://en.wikivoyage.org/wiki/Thaba_Bosiu","Country":"Lesotho","Photo":"https://upload.wikimedia.org/wikipedia/commons/8/8c/S-amer_africa_default_banner.jpg"}]