[{"Name":"Dakar","Description":"Dakar is the capital and largest city of Senegal and is often regarded as the cultural and commercial center of French-speaking West Africa. The metropolitan area is home to about 2.4 million people and lies on the end of the Cap Verte peninsula, which marks the westernmost point on the African mainland.\n","Latitude":"14.681","Longitude":"-17.441","Url":"https://en.wikivoyage.org/wiki/Dakar","Country":"Senegal","Photo":"https://upload.wikimedia.org/wikipedia/commons/thumb/c/c8/Dakar_banner_Mural_in_Bel_Air_district.jpg/2560px-Dakar_banner_Mural_in_Bel_Air_district.jpg"},{"Name":"Saint-Louis","Description":"Saint-Louis is a city and a world heritage site on the Grande Cote in Northern Senegal.\n","Latitude":"16.0333","Longitude":"-16.500","Url":"https://en.wikivoyage.org/wiki/Saint-Louis","Country":"Senegal","Photo":"https://upload.wikimedia.org/wikipedia/commons/8/8c/S-amer_africa_default_banner.jpg"},{"Name":"Thiès","Description":"Thies (pronounced: \"chess\") (French:Thiès) is the capital of the Thies administrative region and the third largest city in Senegal.\n","Latitude":"14.8333","Longitude":"-17.1000","Url":"https://en.wikivoyage.org/wiki/Thi%C3%A8s","Country":"Senegal","Photo":"https://upload.wikimedia.org/wikipedia/commons/8/8c/S-amer_africa_default_banner.jpg"},{"Name":"Kaolack","Description":"Kaolack is a city in Senegal. \n","Latitude":"14.1833","Longitude":"-16.2500","Url":"https://en.wikivoyage.org/wiki/Kaolack","Country":"Senegal","Photo":"https://upload.wikimedia.org/wikipedia/commons/8/8c/S-amer_africa_default_banner.jpg"},{"Name":"Ziguinchor","Description":"Ziguinchor is a city in the Casamance region of southern Senegal. The region is also referred to historically and popularly as Basse Casamance. Ziguinchor region is divided into 3 departments:\n","Latitude":"12.5833","Longitude":"-16.2667","Url":"https://en.wikivoyage.org/wiki/Ziguinchor","Country":"Senegal","Photo":"https://upload.wikimedia.org/wikipedia/commons/8/8c/S-amer_africa_default_banner.jpg"},{"Name":"Tambacounda","Description":"Tambacounda is a city in the Tambacounda Region of southeastern Senegal. It is the main transport hub for Basse Casamance, Guinea and Mali.\n","Latitude":"13.768889","Longitude":"-13.667222","Url":"https://en.wikivoyage.org/wiki/Tambacounda","Country":"Senegal","Photo":"https://upload.wikimedia.org/wikipedia/commons/8/8c/S-amer_africa_default_banner.jpg"},null,{"Name":"Kafountine","Description":"Kafountine is a coastal village in the Casamance region of Senegal.\n","Latitude":"12.9333","Longitude":"-16.7333","Url":"https://en.wikivoyage.org/wiki/Kafountine","Country":"Senegal","Photo":"https://upload.wikimedia.org/wikipedia/commons/8/8c/S-amer_africa_default_banner.jpg"},{"Name":"Kedougou","Description":"Kedougou is the capitol of the administrative region that bears its name. For purposes of this travel guide, it is considered part of the Tambacounda Region of southeastern Senegal.\n","Latitude":"12.56","Longitude":"-12.21","Url":"https://en.wikivoyage.org/wiki/Kedougou","Country":"Senegal","Photo":"https://upload.wikimedia.org/wikipedia/commons/8/8c/S-amer_africa_default_banner.jpg"}]