[{"Name":"Moscow","Description":"Moscow (Russian: Москва, Moskva) is an 860-year-old iconic, global city, which has played a central role in the development of Russia and the world, as the capital of the Russian Empire, the Soviet Union, and, today, the Russian Federation. For many, the sight of the Kremlin complex in the centre of the city is still loaded with symbolism and history.\n","Latitude":"55.7500","Longitude":"37.6167","Url":"https://en.wikivoyage.org/wiki/Moscow","Country":"Russia"},{"Name":"Irkutsk","Description":"\n","Latitude":"52.312222","Longitude":"104.295833","Url":"https://en.wikivoyage.org/wiki/Irkutsk","Country":"Russia"},{"Name":"Kazan","Description":"Kazan (Russian: Каза́нь kuh-ZAHN)  is the capital of Russia's republic of Tatarstan and the center of the world Tatar culture.\n","Latitude":"55.7833","Longitude":"49.1667","Url":"https://en.wikivoyage.org/wiki/Kazan","Country":"Russia"},{"Name":"Nizhny Novgorod","Description":"\n","Latitude":"56.3333","Longitude":"44.0000","Url":"https://en.wikivoyage.org/wiki/Nizhny_Novgorod","Country":"Russia"},{"Name":"Saint Petersburg","Description":"\nSaint Petersburg (Russian: Санкт-Петерб́ург Sankt-Peterburg), known as Petrograd in 1914-1924 and Leningrad in 1924-1991, is the second largest city of Russia, with 5 million inhabitants, and the former capital of the Russian Empire. Founded in 1703, it is not ancient, but its historical cityscape is remarkably well-preserved. The center of Saint Petersburg occupies numerous islands of the Neva River delta, divided by waterways and connected by huge drawbridges. Since 1991 it and some historical suburbs, including Peterhof, have been listed by UNESCO as a World Heritage Site [1]. It is home to one of the world's largest museums of art, the Hermitage. Many Russians know the city as Piter (Питер), a familiar diminutive of Saint Petersburg.\n","Latitude":"59.9500","Longitude":"30.3000","Url":"https://en.wikivoyage.org/wiki/Saint_Petersburg","Country":"Russia"},{"Name":"Sochi","Description":"Sochi (Russian: Cо́чи, SO-chee) is one of the southernmost places of Russia and the second-largest city of Krasnodar Krai, with a population of 415,000. It's along the Black Sea coast, about 1600 km south of Moscow. In 2014 it hosted the Winter Olympic and Paralympic Games, and in 2018 it hosted football matches in the FIFA World Cup.\n","Latitude":"43.596","Longitude":"39.726","Url":"https://en.wikivoyage.org/wiki/Sochi","Country":"Russia"},{"Name":"Vladivostok","Description":"\n","Latitude":"43.1333","Longitude":"131.9","Url":"https://en.wikivoyage.org/wiki/Vladivostok","Country":"Russia"},{"Name":"Volgograd","Description":"Volgograd (Russian: Волгогра́д vuhl-gah-GRAHD) is a large city along the west bank of the Volga River in Southern Russia. It was formerly known as Stalingrad, a name which the city is still known as on several war-related dates each year (on account of local legislation). It was the scene of one of the most important and bloodiest battles of the Second World War.\n","Latitude":"48.7000","Longitude":"44.5167","Url":"https://en.wikivoyage.org/wiki/Volgograd","Country":"Russia"},{"Name":"Yekaterinburg","Description":"Yekaterinburg (Russian: Екатеринбу́рг yee-kuh-tee-reen-BOORG) is the capital of the Urals region of Russia.\n","Latitude":"56.8333","Longitude":"60.5833","Url":"https://en.wikivoyage.org/wiki/Yekaterinburg","Country":"Russia"},null,null,{"Name":"Golden Ring","Description":"The Golden Ring is a collection of historic Russian cities, northeast of Moscow and southeast of Saint Petersburg.  They are close enough to each other that most could be reached from any other in 24 hours (by horse).  Their architecture and traditional crafts make them popular for tourism.\n","Latitude":"56.80","Longitude":"39.79","Url":"https://en.wikivoyage.org/wiki/Golden_Ring","Country":"Russia"},{"Name":"Kamchatka","Description":"Kamchatka (Russian: Камча́тка, kahm-CHAHT-kuh) is a 1,250 km-long 270,000 km2 peninsula in the Russian Far East, protruding into the northern Pacific Ocean. Kamchatka Krai is a county which also includes parts of the Russian mainland, and some small islands. Though larger than California, the krai has only about 320 000 inhabitants; most of them in or near the capital, Petropavlovsk-Kamchatsky. The region borders Chukotka in the north and northeast and Magadan Oblast in the northwest.\n","Latitude":"57.0","Longitude":"160.0","Url":"https://en.wikivoyage.org/wiki/Kamchatka","Country":"Russia"},{"Name":"Kizhi","Description":"Kizhi (Russian: Кижи) is an island in Karelia, Russia.\n","Latitude":"62.066667","Longitude":"35.225","Url":"https://en.wikivoyage.org/wiki/Kizhi","Country":"Russia"},null,{"Name":"Lake Baikal","Description":"Lake Baikal(Russian: Байка́л bigh-KAHL) is a lake in Eastern Siberia, Russia. It is the biggest and deepest freshwater lake in the world, and a  UNESCO World Heritage site.\n","Latitude":"53.5000","Longitude":"108.0000","Url":"https://en.wikivoyage.org/wiki/Lake_Baikal","Country":"Russia"},{"Name":"Volgograd","Description":"Volgograd (Russian: Волгогра́д vuhl-gah-GRAHD) is a large city along the west bank of the Volga River in Southern Russia. It was formerly known as Stalingrad, a name which the city is still known as on several war-related dates each year (on account of local legislation). It was the scene of one of the most important and bloodiest battles of the Second World War.\n","Latitude":"48.7000","Longitude":"44.5167","Url":"https://en.wikivoyage.org/wiki/Volgograd","Country":"Russia"},{"Name":"Solovetsky Islands","Description":"\n","Latitude":"65.024444454444","Longitude":"35.710555565556","Url":"https://en.wikivoyage.org/wiki/Solovetsky_Islands","Country":"Russia"},null]