[{"Name":"Harare","Description":"Harare is the capital of Zimbabwe.\n","Latitude":"-17.8292","Longitude":"31.054","Url":"https://en.wikivoyage.org/wiki/Harare","Country":"Zimbabwe"},{"Name":"Bulawayo","Description":"\nBulawayo is a relaxed, elegant industrial city with wide tree-lined boulevards, in western Zimbabwe. Several World Heritage sites, including historic monuments from the precolonial era and national parks, are within an hour's drive from Bulawayo, making it a great tourist destination.\n","Latitude":"-20.17","Longitude":"28.58","Url":"https://en.wikivoyage.org/wiki/Bulawayo","Country":"Zimbabwe"},{"Name":"Chimanimani","Description":"\nChimanimani is in Eastern Highlands, Zimbabwe.\n","Latitude":"-19.8","Longitude":"32.86","Url":"https://en.wikivoyage.org/wiki/Chimanimani","Country":"Zimbabwe"},{"Name":"Gweru","Description":"Gweru is a city in Southeastern Zimbabwe.\n","Latitude":"-19.4500","Longitude":"29.8167","Url":"https://en.wikivoyage.org/wiki/Gweru","Country":"Zimbabwe"},{"Name":"Kariba","Description":"Kariba is a town on the shore of Lake Kariba in Zimbabwe.\n","Latitude":"-16.516667","Longitude":"28.8","Url":"https://en.wikivoyage.org/wiki/Kariba","Country":"Zimbabwe"},{"Name":"Masvingo","Description":"Masvingo is a city in Southeastern Zimbabwe and the capital of Masvingo province. \n","Latitude":"-20.074444","Longitude":"30.832778","Url":"https://en.wikivoyage.org/wiki/Masvingo","Country":"Zimbabwe"},{"Name":"Mutare","Description":"Mutare is the fourth largest city in Zimbabwe.\n","Latitude":"-18.9667","Longitude":"32.6333","Url":"https://en.wikivoyage.org/wiki/Mutare","Country":"Zimbabwe"},{"Name":"Victoria Falls","Description":"Victoria Falls is a town in the western portion of Zimbabwe, across the border from Livingstone, Zambia, and near Botswana. The town lies immediately next to the falls, and they are the major attraction, but this popular tourist destination offers both adventure seekers and sightseers plenty of opportunities for a longer stay.\n","Latitude":"-17.9333","Longitude":"25.8333","Url":"https://en.wikivoyage.org/wiki/Victoria_Falls","Country":"Zimbabwe"},{"Name":"Great Zimbabwe","Description":"Great Zimbabwe is a complex of ruins built by Shona-speaking people between the 13th and 14th centuries. It was once the centre of a vast empire known as the Munhumutapa Empire.  It has been a UNESCO World Heritage Site since 1986.\n","Latitude":"-20.273063","Longitude":"30.934344","Url":"https://en.wikivoyage.org/wiki/Great_Zimbabwe","Country":"Zimbabwe"},{"Name":"Kariba","Description":"Kariba is a town on the shore of Lake Kariba in Zimbabwe.\n","Latitude":"-16.516667","Longitude":"28.8","Url":"https://en.wikivoyage.org/wiki/Kariba","Country":"Zimbabwe"},{"Name":"Matobo National Park","Description":"\nMatobo National Park is in Matabeleland of Zimbabwe.\n","Latitude":"-20.499","Longitude":"28.632","Url":"https://en.wikivoyage.org/wiki/Matobo_National_Park","Country":"Zimbabwe"},{"Name":"Mutoroshanga Ethel Mine","Description":"\n","Latitude":"-17.065353","Longitude":"30.706956","Url":"https://en.wikivoyage.org/wiki/Mutoroshanga_Ethel_Mine","Country":"Zimbabwe"},{"Name":"Chinhoyi Caves","Description":"Chinhoyi is in Mashonaland, Zimbabwe.\n","Latitude":"-17.3500","Longitude":"30.2000","Url":"https://en.wikivoyage.org/wiki/Chinhoyi_Caves","Country":"Zimbabwe"}]