[{"Name":"Dhaka","Description":"Dhaka (formerly Dacca in English) is the capital and largest city of Bangladesh. It is the largest city by population in the historical region of Bengal and a major city in South Asia. Dhaka emerged as a cosmopolitan city during the Mughal Empire. It is a hub for trade and culture, with a long history as a Bengali capital. It has been called the City of Mosques and the Venice of the East, due to its Islamic architecture and a riverfront facing the Buriganga (Old Ganges). It is also known as the Rickshaw Capital of the World, as there are over 500,000 cycle rickshaws running on its roads. Although it is described as a concrete jungle, Dhaka has venerable green spaces, including many gardens and parks. Today, Dhaka is South Asia's second most populous capital after Delhi and an important financial center alongside Mumbai and Karachi.\n","Latitude":"23.702","Longitude":"90.37","Url":"https://en.wikivoyage.org/wiki/Dhaka","Country":"Bangladesh"},{"Name":"Barisal","Description":"Barisal is the capital of Barisal Division in southern Bangladesh.\n","Latitude":"22.7","Longitude":"90.366667","Url":"https://en.wikivoyage.org/wiki/Barisal","Country":"Bangladesh"},{"Name":"Chittagong","Description":"Chittagong (officially Chattogram) is the main international seaport and second largest city in Bangladesh. Located on the Bay of Bengal, the city is the headquarters of many Bangladeshi companies, including the Chittagong Stock Exchange. According to the British newspaper the Telegraph, Chittagong is one of the ten fastest growing cities in the world.\n","Latitude":"22.366667","Longitude":"91.8","Url":"https://en.wikivoyage.org/wiki/Chittagong","Country":"Bangladesh"},{"Name":"Jessore","Description":"Jessore (pronounced Josh-ore) is a city in the Khulna Division of Bangladesh. There's not a lot to do here, but the people are friendly and it makes an OK stopover en route to or from Rajshahi, Khulna or Benapole.\n","Latitude":"23.1667","Longitude":"89.2167","Url":"https://en.wikivoyage.org/wiki/Jessore","Country":"Bangladesh"},{"Name":"Khulna","Description":"Khulna is the main city in Khulna Division in Bangladesh. On the bank of Rupsha (and Bhairav) river, it is known as the industrial city and located in southern part of Bangladesh. A large part of the Sundarbans, a UNESCO world heritage is located in Khulna. It has many Jute mills, the only newsprint mill and hardboard mill of Bangladesh, the only state-owned match factory (Dada match, later Dhaka match), Oxygen company (BOL), Ship yard. Khulna is the 4th largest city in Bangladesh after Dhaka,Chittagong and Comilla. It is a quiet, calm city inhabited by 1.5 million people.\n","Latitude":"22.8167","Longitude":"89.5500","Url":"https://en.wikivoyage.org/wiki/Khulna","Country":"Bangladesh"},{"Name":"Mymensingh","Description":"Mymensingh is a city in Bangladesh with renowned educational institutes, Brahmaputra River, and the beauty of green paddy fields.\n","Latitude":"24.7500","Longitude":"90.4000","Url":"https://en.wikivoyage.org/wiki/Mymensingh","Country":"Bangladesh"},{"Name":"Rajshahi","Description":"Rajshahi is the capital of Rajshahi Division in Bangladesh.\n","Latitude":"24.3667","Longitude":"88.6000","Url":"https://en.wikivoyage.org/wiki/Rajshahi","Country":"Bangladesh"},null,{"Name":"Sylhet","Description":"Sylhet is the capital of Sylhet Division in Bangladesh.\n","Latitude":"24.897778","Longitude":"91.871389","Url":"https://en.wikivoyage.org/wiki/Sylhet","Country":"Bangladesh"},{"Name":"Cox's Bazar","Description":"Cox's Bazar is a beach resort in the Chittagong Division in south-eastern Bangladesh. It has one of the longest sea beaches in the world, 120 km (75 miles) long.\n","Latitude":"21.583333","Longitude":"92.016667","Url":"https://en.wikivoyage.org/wiki/Cox%27s_Bazar","Country":"Bangladesh"},{"Name":"Bagerhat","Description":"Bagerhat Sadar Upazila is a world heritage listed historical town in the Khulna Division of Bangladesh. \n","Latitude":"22.6500","Longitude":"89.7833","Url":"https://en.wikivoyage.org/wiki/Bagerhat","Country":"Bangladesh"},{"Name":"Char Atra","Description":"Char Atra is an island located in the Ganges in Bangladesh.\n","Latitude":"23.361314","Longitude":"90.469557","Url":"https://en.wikivoyage.org/wiki/Char_Atra","Country":"Bangladesh"},{"Name":"Paharpur","Description":"Naogaon District is located in north-eastern Bangladesh, within the Rajshahi Division. The District is perhaps most well-known for being home to the world heritage listed Paharpur Vihar.\n","Latitude":"24.8167","Longitude":"88.9500","Url":"https://en.wikivoyage.org/wiki/Paharpur","Country":"Bangladesh"},{"Name":"Saint Martins Island","Description":"Saint Martins Island is in the Chittagong Division of Bangladesh and lies about 10 km south-west of the southern tip of the mainland.\n","Latitude":"20.627256","Longitude":"92.322578","Url":"https://en.wikivoyage.org/wiki/Saint_Martins_Island","Country":"Bangladesh"},{"Name":"Sundarbans","Description":"The Sundarbans is a huge mangrove forest on the coast of the Ganges delta by the Bay of Bengal. 60% of the forest lies in southwestern Bangladesh; the remaining 40% in West Bengal, India. It is a UNESCO World Heritage Site and famous as a sanctuary of the Bengal tiger.\n","Latitude":"21.9333","Longitude":"88.8500","Url":"https://en.wikivoyage.org/wiki/Sundarbans","Country":"Bangladesh"}]