[{"Name":"Bangkok","Description":"Bangkok (Thai: กรุงเทพฯ Krung Thep) is the capital and largest city of Thailand and, with a population of over eleven million inhabitants, by far its main city. Its high-rise buildings, heavy traffic congestion, intense heat and naughty nightlife do not immediately give you a warm welcome — but don't let your first impression mislead you. It is one of Asia's most cosmopolitan cities with magnificent temples and palaces, authentic canals, busy markets and a vibrant nightlife that has something for everyone.\n","Latitude":"13.752222","Longitude":"100.493889","Url":"https://en.wikivoyage.org/wiki/Bangkok","Country":"Thailand"},{"Name":"Ayutthaya","Description":"\nAyutthaya (อยุธยา), full name Phra Nakhon Si Ayutthaya (พระนครศรีอยุธยา), is an ancient capital and modern city in the Central Plains of Thailand, 85 km north of Bangkok.\n","Latitude":"14.355","Longitude":"100.565","Url":"https://en.wikivoyage.org/wiki/Ayutthaya","Country":"Thailand"},{"Name":"Chiang Mai","Description":"Chiang Mai (เชียงใหม่) is the hub of northern Thailand. With a population of over 170,000 in the city proper (and more than one million in the metropolitan area), it is Thailand's fourth-largest city. On a plain at an elevation of 316 m, surrounded by mountains and lush countryside, it is much greener and quieter than the capital and has a cosmopolitan air and a significant expatriate population, all factors which have led many from Bangkok to settle permanently in this \"rose of the north\".\n","Latitude":"18.795278","Longitude":"98.998611","Url":"https://en.wikivoyage.org/wiki/Chiang_Mai","Country":"Thailand"},{"Name":"Chiang Rai","Description":"\nChiang Rai (เชียงราย) is the capital of Chiang Rai Province, Northern Thailand.\n","Latitude":"19.90241","Longitude":"99.83875","Url":"https://en.wikivoyage.org/wiki/Chiang_Rai","Country":"Thailand"},{"Name":"Kanchanaburi","Description":"Kanchanaburi (Thai: กาญจนบุรี) is a city at the confluence of the Rivers Kwai Noi and Kwai Yai.\n","Latitude":"14.019444","Longitude":"99.531111","Url":"https://en.wikivoyage.org/wiki/Kanchanaburi","Country":"Thailand"},{"Name":"Nakhon Ratchasima","Description":"Nakhon Ratchasima (นครราชสีมา), usually referred to as Khorat (โคราช) or, more commonly Korat, is the largest city in the Isaan region of Thailand. Its proximity to Bangkok and Isaan make it a good jumping-off point for travellers who are heading into Isaan. It has excellent transport links to the rest of the country and beyond. Hwy 2 (Bangkok to Nong Khai) runs through the city, as does the northeast railway line which splits in the east of the city: one line runs up to Nong Khai and the other, to Ubon Ratchathani. There are buses which run to just about every city in the northern, northeastern, and eastern regions. You can even get buses to Vientiane in Laos and to the Cambodian border at Aranyaprathet.\n","Latitude":"14.97095","Longitude":"102.08706","Url":"https://en.wikivoyage.org/wiki/Nakhon_Ratchasima","Country":"Thailand"},{"Name":"Pattaya","Description":"Pattaya (พัทยา) is a seaside resort on the Eastern Gulf Coast of Thailand, about 150 km southeast of Bangkok. Pattaya is mostly famous for its go-go and beer bars, but local authorities have made some efforts to provide more family-friendly attractions and activities. Although the sex industry is still going strong and sex tourism remains the key money earner for Pattaya, the resort also attracts local families and holidaymakers from around the world. If you are going to be offended by the sight of fat old men hand in hand with young Thai women, then Pattaya is probably not the place for you.\n","Latitude":"12.9500","Longitude":"100.8833","Url":"https://en.wikivoyage.org/wiki/Pattaya","Country":"Thailand"},{"Name":"Sukhothai","Description":"Sukhothai (สุโขทัย) is a small city (population 35,713) in Lower Northern Thailand, 427 kilometres north of Bangkok. Its attraction lies in the ruins of the ancient city Sukhothai, a UNESCO World Heritage Site. The name translates as \"the dawn of happiness\".\n","Latitude":"17.014167","Longitude":"99.821944","Url":"https://en.wikivoyage.org/wiki/Sukhothai","Country":"Thailand"},{"Name":"Surat Thani","Description":"Surat Thani (สุราษฎร์ธานี) is a city on the Central Gulf Coast of southern Thailand.\n","Latitude":"9.14142","Longitude":"99.32945","Url":"https://en.wikivoyage.org/wiki/Surat_Thani","Country":"Thailand"},{"Name":"Khao Sok National Park","Description":"Khao Sok National Park (pronounced \"cow soak\") is a jungle reserve in Southern Thailand. It is one of the most beautiful wildlife reserves in Thailand.\n","Latitude":"8.90407","Longitude":"98.53500","Url":"https://en.wikivoyage.org/wiki/Khao_Sok_National_Park","Country":"Thailand"},{"Name":"Khao Yai National Park","Description":"Khao Yai National Park is a national park in Southern Isaan, Thailand.\n","Latitude":"14.33092","Longitude":"101.51573","Url":"https://en.wikivoyage.org/wiki/Khao_Yai_National_Park","Country":"Thailand"},{"Name":"Ko Chang","Description":"Ko Chang (เกาะช้าง) is an island in Trat Province, Eastern Thailand.\n","Latitude":"12.03697","Longitude":"102.37095","Url":"https://en.wikivoyage.org/wiki/Ko_Chang","Country":"Thailand"},{"Name":"Ko Lipe","Description":"Ko Lipe (Thai: เกาะหลีเป๊ะ) is an island off the Andaman Coast of Southern Thailand. It is in Satun Province, close to Langkawi Island (Malaysia), 67 km from Pak Bara. It is part of a large group of over 70 islands, and also part of a smaller cluster of islands called the Butang Islands or Adang Archipelago.\n","Latitude":"6.49","Longitude":"99.3","Url":"https://en.wikivoyage.org/wiki/Ko_Lipe","Country":"Thailand"},{"Name":"Ko Pha Ngan","Description":"Ko Pha Ngan (เกาะพะง้น, pronounced KOH pa-nGan with G as in mango) is an island off the Central Gulf Coast of Southern Thailand and forms part of the Chumphon Archipelago. Halfway between the islands of Ko Samui and Ko Tao, it is known as a land of coconut trees and the world-famous Full Moon Party that have placed the island firmly on the Banana Pancake Trail.\n","Latitude":"9.73","Longitude":"100.04","Url":"https://en.wikivoyage.org/wiki/Ko_Pha_Ngan","Country":"Thailand"},{"Name":"Ko Samet","Description":"\nKo Samet (เกาะเสม็ด), also spelled Koh Samed, is a small island off the Eastern Gulf Coast in Rayong province, within easy reach of Bangkok and Pattaya.\n","Latitude":"12.567778","Longitude":"101.454722","Url":"https://en.wikivoyage.org/wiki/Ko_Samet","Country":"Thailand"},{"Name":"Ko Samui","Description":"Ko Samui (เกาะสมุย), often called just Samui (สมุย) is an island in the Gulf of Thailand, about 700 km south of Bangkok and 80 km from the eastern coastline of Southern Thailand.\n","Latitude":"9.49986","Longitude":"99.99825","Url":"https://en.wikivoyage.org/wiki/Ko_Samui","Country":"Thailand"},{"Name":"Krabi Province","Description":"Krabi Province (จังหวัดกระบี่) is a popular beach destination on the Andaman Sea in Southern Thailand.\n","Latitude":"8.06","Longitude":"98.92","Url":"https://en.wikivoyage.org/wiki/Krabi_Province","Country":"Thailand"},{"Name":"Phuket","Description":"Phuket (ภูเก็ต), pronounced (roughly) \"puh-KET\", is Thailand's largest island. It is 48 km in length, 21 km at its widest, and is in Southern Thailand, on the west-facing Andaman Sea coastline, suspended from the southern tip of Phang Nga province by a pair of short but substantial road bridges.\n","Latitude":"7.98376","Longitude":"98.33107","Url":"https://en.wikivoyage.org/wiki/Phuket","Country":"Thailand"}]