[{"Name":"Wellington","Description":"Wellington (Māori: Te Whanganui-a-Tara) is the capital and second largest urban area of New Zealand. It also has the distinction of being the world's southernmost capital city.\n","Latitude":"-41.288889","Longitude":"174.777222","Url":"https://en.wikivoyage.org/wiki/Wellington","Country":"New Zealand"},{"Name":"Auckland","Description":"Auckland is the largest city in New Zealand, and the main arrival point for visitors to the country. It is a vibrant multicultural city, set around two big natural harbours, and ranked as one of the most liveable cities in the world.  It is in the warm northern part of the North Island, on a narrow isthmus that joins the Northland peninsula to the rest of the island.\n","Latitude":"-36.84","Longitude":"174.77","Url":"https://en.wikivoyage.org/wiki/Auckland","Country":"New Zealand"},{"Name":"Christchurch","Description":"Christchurch (Māori: Ōtautahi) is the largest city in the South Island of New Zealand, and the third most-populous urban area in the country. As well as having the most attractions of any place in the South Island, it's the major international entry point for visiting the rest of the island. It is on the east coast of the South Island, and is the centre of the Canterbury region.\n","Latitude":"-43.530000","Longitude":"172.621000","Url":"https://en.wikivoyage.org/wiki/Christchurch","Country":"New Zealand"},{"Name":"Dunedin","Description":"Dunedin is the seat of the Otago region and the second-largest city on the South Island of New Zealand.  The city was originally and predominantly settled by Scots, and it's name is an anglicised version of Dùn Èideann, the Scottish Gaelic name for Edinburgh.\n","Latitude":"-45.87423","Longitude":"170.50361","Url":"https://en.wikivoyage.org/wiki/Dunedin","Country":"New Zealand"},{"Name":"Hamilton (New Zealand)","Description":"Hamilton (Kirikiriroa in Māori)  is an inland city in the Waikato region of New Zealand's North Island. The Waikato River, New Zealand's longest river, flows through the middle of the city. This effectively cuts the city in half, with Hamilton West containing the Central Business District and main shopping areas. Hamilton East, among other things, is home to The University of Waikato, resulting in a large student population.\n","Latitude":"-37.7833","Longitude":"175.2833","Url":"https://en.wikivoyage.org/wiki/Hamilton_(New_Zealand)","Country":"New Zealand"},{"Name":"Napier","Description":"Napier in New Zealand is the most consistently Art Deco city in the world, due to being largely rebuilt in the 1930s following a devastating earthquake in 1931. It is in Hawke's Bay, on the sunny east coast of the North Island.\n","Latitude":"-39.4833","Longitude":"176.9167","Url":"https://en.wikivoyage.org/wiki/Napier","Country":"New Zealand"},{"Name":"Nelson (New Zealand)","Description":"Nelson (Māori: Whakatū) is the second oldest settled city in New Zealand and the oldest in the South Island. It is in a region often known as Nelson Bays or the \"Top of the South\" and is actually slightly north of the capital city of Wellington in the North Island.\n","Latitude":"-41.2709","Longitude":"173.2839","Url":"https://en.wikivoyage.org/wiki/Nelson_(New_Zealand)","Country":"New Zealand"},{"Name":"Queenstown (New Zealand)","Description":"Queenstown (Māori: Tāhuna) is a world renowned resort town in the South Island of New Zealand. The town sits on the edge of Lake Wakatipu and is surrounded by the Southern Alps.\n","Latitude":"-45.031111","Longitude":"168.662500","Url":"https://en.wikivoyage.org/wiki/Queenstown_(New_Zealand)","Country":"New Zealand"},{"Name":"Rotorua","Description":"Rotorua is the geothermal wonderland of New Zealand, with easily experienced Māori culture, and a range of outdoor adventure activities.\n","Latitude":"-38.137778","Longitude":"176.251389","Url":"https://en.wikivoyage.org/wiki/Rotorua","Country":"New Zealand"},{"Name":"Abel Tasman National Park","Description":"Abel Tasman National Park is in the Nelson Bays region of the South Island of New Zealand, between Golden Bay and Tasman Bay.\n","Latitude":"-40.833333","Longitude":"172.9","Url":"https://en.wikivoyage.org/wiki/Abel_Tasman_National_Park","Country":"New Zealand"},{"Name":"Aoraki Mount Cook National Park","Description":"Aoraki/Mount Cook National Park is dominated by New Zealand's two highest mountains, Aoraki/Mount Cook and Mount Tasman. Several other high peaks of the South Island's Southern Alps are nearby.  The park is part of the \"Te Wahipounamu\" UNESCO World Heritage site.\n","Latitude":"-43.7333","Longitude":"170.1000","Url":"https://en.wikivoyage.org/wiki/Aoraki_Mount_Cook_National_Park","Country":"New Zealand"},{"Name":"Bay of Islands","Description":"The Bay of Islands is an historic area and very popular tourist destination in the Northland region of the North Island of New Zealand.\n","Latitude":"-35.217","Longitude":"174.056","Url":"https://en.wikivoyage.org/wiki/Bay_of_Islands","Country":"New Zealand"},{"Name":"Coromandel Peninsula","Description":"The Coromandel Peninsula on the north-east coast of the North Island of New Zealand has a small permanent population, but is a popular holiday destination year-round, and especially in summer. There are fabulous golden and white sand beaches with magnificent coastal scenery and a rugged, forest-clothed interior to be hiked. The peninsula, 85 km long, separates the Hauraki Gulf and the Auckland Region from the Bay of Plenty.\n","Latitude":"-36.90","Longitude":"175.58","Url":"https://en.wikivoyage.org/wiki/Coromandel_Peninsula","Country":"New Zealand"},{"Name":"Marlborough (New Zealand)","Description":"\nMarlborough is a region at the north-eastern end of the South Island of New Zealand, chock full of great food to eat and intriguing sights to see. It is renowned for its high sunshine hours, New Zealand's largest wine-growing area, whale and fur seal watching off the Kaikoura Coast and the sunken valleys of the Marlborough Sounds, where most of the world's green-lipped mussels are harvested.\n","Latitude":"-41.7","Longitude":"173.6","Url":"https://en.wikivoyage.org/wiki/Marlborough_(New_Zealand)","Country":"New Zealand"},{"Name":"Milford Sound","Description":"Milford Sound / Piopiotahi is a spectacular glacier-carved fiord in the Fiordland National Park on the west coast of New Zealand and is one of New Zealand's most well known scenic attractions. On display is a spectacular combination of mountains, sheer cliffs, waterfalls and marine life. It is the best known of a series of fiords in the park, and the only one which is accessible by road.\n","Latitude":"-44.675000","Longitude":"167.929444","Url":"https://en.wikivoyage.org/wiki/Milford_Sound","Country":"New Zealand"},{"Name":"Taupo","Description":"Taupo, also written Taupō, is a town on the northern shore of Lake Taupo, New Zealand's largest lake, in the central North Island. It is built around the lake's outlet into the Waikato River, the country's longest river.\n","Latitude":"-38.6875","Longitude":"176.0694","Url":"https://en.wikivoyage.org/wiki/Taupo","Country":"New Zealand"},{"Name":"Tongariro National Park","Description":"Tongariro National Park, in the central North Island of New Zealand, contains the three active volcanoes of Mount Ruapehu (the island's highest peak), Mount Tongariro and Mount Ngauruhoe. It is one of the North Island's most popular areas for day tramping, multi-day tramping and snow sports. The island's two main skifields are on Ruapehu. The park was New Zealand's first national park and is a World Heritage site.\n","Latitude":"-39.2000","Longitude":"175.5833","Url":"https://en.wikivoyage.org/wiki/Tongariro_National_Park","Country":"New Zealand"},{"Name":"Westland National Park","Description":"\nWestland Tai Poutini National Park is part of a UNESCO World Heritage Site known as Te Wahipounamu in South West New Zealand.  It lies on the West Coast of the South Island in the Southern Alps, adjacent to Aoraki Mount Cook National Park and to the north of Mount Aspiring National Park and Fiordland National Park. \n","Latitude":"-43.383333","Longitude":"170.183333","Url":"https://en.wikivoyage.org/wiki/Westland_National_Park","Country":"New Zealand"}]