[{"Name":"Libreville","Description":"Libreville is the largest city in and capital of Gabon.\n","Latitude":"0.394444","Longitude":"9.4625","Url":"https://en.wikivoyage.org/wiki/Libreville","Country":"Gabon","Photo":"https://upload.wikimedia.org/wikipedia/commons/4/47/Libreville_Wikivoyage_banner.jpg"},{"Name":"Franceville","Description":"Franceville is a city in Gabon.\n","Latitude":"-1.6333","Longitude":"13.5833","Url":"https://en.wikivoyage.org/wiki/Franceville","Country":"Gabon","Photo":"https://upload.wikimedia.org/wikipedia/commons/8/8c/S-amer_africa_default_banner.jpg"},{"Name":"Gamba","Description":"Gamba is a small town located in the Coastal Plain region of Gabon, \non the Ndogo Lagoon, near the Atlantic Ocean. The town is surrounded by small plains and forests. Its name, meaning fog, is believed to come from the Eshira people who found the place foggy at times. Besides it's amazing landscape and diverse biodiversity, Gamba is one of the economic hubs of Gabon. The town is home of the oil company Shell Gabon.\n","Latitude":"-2.725","Longitude":"10.016666666667","Url":"https://en.wikivoyage.org/wiki/Gamba","Country":"Gabon","Photo":"https://upload.wikimedia.org/wikipedia/commons/8/8c/S-amer_africa_default_banner.jpg"},{"Name":"Mayumba","Description":"Mayumba is a city in Gabon.\n","Latitude":"-3.4166666666667","Longitude":"10.65","Url":"https://en.wikivoyage.org/wiki/Mayumba","Country":"Gabon","Photo":"https://upload.wikimedia.org/wikipedia/commons/8/8c/S-amer_africa_default_banner.jpg"},null,null,null,null,null,{"Name":"Loango National Park","Description":"Loango National Park is in the Coastal Plain region of Gabon.\n","Latitude":"-2.166667","Longitude":"9.566667","Url":"https://en.wikivoyage.org/wiki/Loango_National_Park","Country":"Gabon","Photo":"https://upload.wikimedia.org/wikipedia/commons/4/46/Loango_National_Park.jpg"},{"Name":"Lopé National Park","Description":"Lopé National Park is in the Central Highlands region of Gabon. The Lopé-Okanda ecosystem and landscape was declared a UNESCO World Heritage site in 2007.\n","Latitude":"-0.5253","Longitude":"11.5428","Url":"https://en.wikivoyage.org/wiki/Lop%C3%A9_National_Park","Country":"Gabon","Photo":"https://upload.wikimedia.org/wikipedia/commons/d/d0/Gabon_banner_Lop%C3%A9_National_Park.jpg"},null,null]