[{"Name":"Ulaanbaatar","Description":"Ulaanbaatar (Улаанбаатар) — also Ulan Bator, UB, or in the local language, Khot (\"the city\") — is the capital and the largest city in Mongolia. Ulaanbaatar is disproportionately larger than all other cities in the country: with a population of 1.34 million as of January 2016, approximately 44% of the country lives here. It is located just east of the center of the country in the forest-steppe region close to the birthplace of Genghis Khan. Ulaanbaatar is a city where authentic Mongol culture thrives in an urban setting, which has made it a destination in its own right.\n","Latitude":"47.92","Longitude":"106.92","Url":"https://en.wikivoyage.org/wiki/Ulaanbaatar","Country":"Mongolia","Photo":"https://upload.wikimedia.org/wikipedia/commons/1/15/Ulanbataar_panorama_banner.jpg"},{"Name":"Choibalsan","Description":"Choibalsan is the capital of Dornod province. (Mongolian: Чойбалсан) and the fourth-largest city in Mongolia. The name of the city was Bayan Tu'men (Баян Түмэн) until 1941, when it was renamed after the communist leader Khorloogiin Choibalsan. The city administrative unit's official name is Kherlen sum, with area of 281 km2. It is situated at the Kherlen River, at an elevation of 747 m above sea level.\n","Latitude":"48.08032","Longitude":"114.52754","Url":"https://en.wikivoyage.org/wiki/Choibalsan","Country":"Mongolia","Photo":"https://upload.wikimedia.org/wikipedia/commons/f/f2/Pagebanner_default.jpg"},{"Name":"Erdenet","Description":"Erdenet, with a population of nearly 75 000, is the second largest city in Mongolia and capital of Orhon province.","Latitude":"49.027778","Longitude":"104.044444","Url":"https://en.wikivoyage.org/wiki/Erdenet","Country":"Mongolia","Photo":"https://upload.wikimedia.org/wikipedia/commons/f/f2/Pagebanner_default.jpg"},{"Name":"Hovd","Description":"Hovd or Khovd (Mongolian: Ховд) is a city in the Hovd province of Mongolia.\n","Latitude":"48.004167","Longitude":"91.640556","Url":"https://en.wikivoyage.org/wiki/Hovd","Country":"Mongolia","Photo":"https://upload.wikimedia.org/wikipedia/commons/f/fc/Hovd_Cave_drawings.jpg"},{"Name":"Karakorum","Description":"Kharahhorin (also spelled Karakorin and Kharkhorin) is a city in Central Mongolia, about 300 km west of Ulaanbaatar as the crow flies. Locals call it Har Horin or Harhorin. Karakorum and its surroundings have been the location of many imperial capitals throughout history, including that of the Uighur Empire (9th century), the Mongol Empire (13th century) when Marco Polo visited, and later on, the Northern Yuan.\n","Latitude":"47.198056","Longitude":"102.821111","Url":"https://en.wikivoyage.org/wiki/Karakorum","Country":"Mongolia","Photo":"https://upload.wikimedia.org/wikipedia/commons/1/1c/Karakorum_banner.jpg"},{"Name":"Mörön","Description":"Mörön is the capital of Hövsgöl, and a usual stopover en route due to its central location in the province.\n","Latitude":"49.635556","Longitude":"100.155556","Url":"https://en.wikivoyage.org/wiki/M%C3%B6r%C3%B6n","Country":"Mongolia","Photo":"https://upload.wikimedia.org/wikipedia/commons/f/f2/Pagebanner_default.jpg"},{"Name":"Ölgii","Description":"\nÖlgii is the capital of Bayan-Ölgii province and is also known as Olgii, Ulgy, or Ulgii.\n","Latitude":"48.968333","Longitude":"89.968611","Url":"https://en.wikivoyage.org/wiki/%C3%96lgii","Country":"Mongolia","Photo":"https://upload.wikimedia.org/wikipedia/commons/9/94/%C3%96lgii_banner_Eagle_hunters.jpg"},null,{"Name":"Tsetserleg","Description":"Tsetserleg (also spelt Tsetserlik, Tsetserlig or Cècèrlèg) is the capital of Arkhangai province.\n","Latitude":"47.476944444444","Longitude":"101.45027777778","Url":"https://en.wikivoyage.org/wiki/Tsetserleg","Country":"Mongolia","Photo":"https://upload.wikimedia.org/wikipedia/commons/f/f2/Pagebanner_default.jpg"},{"Name":"Khognokhan mountain specially protected territory","Description":"\nKhognokhan mountain specially protected territory is in Mongolia, 280 km west of Ulaanbaatar on the way to Kharkhorin and 90 km east of Kharkhorin.\n","Latitude":"47.14","Longitude":"104.20","Url":"https://en.wikivoyage.org/wiki/Khognokhan_mountain_specially_protected_territory","Country":"Mongolia","Photo":"https://upload.wikimedia.org/wikipedia/commons/f/f2/Pagebanner_default.jpg"},{"Name":"Altai Tavan Bogd National Park","Description":"\n","Latitude":"48.49","Longitude":"88.87","Url":"https://en.wikivoyage.org/wiki/Altai_Tavan_Bogd_National_Park","Country":"Mongolia","Photo":"https://upload.wikimedia.org/wikipedia/commons/thumb/7/7e/Altai_mountains.jpg/2560px-Altai_mountains.jpg"},{"Name":"Gun-Galuut Nature Reserve","Description":"Gun-Galuut Nature Reserve is in Tuv province.\n","Latitude":"47.5410","Longitude":"108.3430","Url":"https://en.wikivoyage.org/wiki/Gun-Galuut_Nature_Reserve","Country":"Mongolia","Photo":"https://upload.wikimedia.org/wikipedia/commons/f/f2/Pagebanner_default.jpg"},{"Name":"Gorkhi-Terelj National Park","Description":"Gorkhi-Terelj National Park (Горхи-Тэрэлж) is in Tuv of Mongolia, 55 km outside of Ulaanbaatar.\n","Latitude":"47.91404","Longitude":"107.43599","Url":"https://en.wikivoyage.org/wiki/Gorkhi-Terelj_National_Park","Country":"Mongolia","Photo":"https://upload.wikimedia.org/wikipedia/commons/d/d3/Gorkhi_National_park_banner.jpg"},{"Name":"Khustain Nuruu National Park","Description":"Khustain Nuruu National Park is in the  Tuv Aimag of Mongolia.\n","Latitude":"47.7650","Longitude":"105.8783","Url":"https://en.wikivoyage.org/wiki/Khustain_Nuruu_National_Park","Country":"Mongolia","Photo":"https://upload.wikimedia.org/wikipedia/commons/f/f2/Pagebanner_default.jpg"},{"Name":"Gobi Gurvan Saikhan National Park","Description":"Gobi Gurvan Saikhan National Park is in Mongolia.\n","Latitude":"43.802729","Longitude":"101.589663","Url":"https://en.wikivoyage.org/wiki/Gobi_Gurvan_Saikhan_National_Park","Country":"Mongolia","Photo":"https://upload.wikimedia.org/wikipedia/commons/f/f6/Gobi_banner.jpg"}]