[{"Name":"Bangui","Description":"\n","Latitude":"4.367222","Longitude":"18.5775","Url":"https://en.wikivoyage.org/wiki/Bangui","Country":"Central African Republic"},{"Name":"Mbaiki","Description":"Mbaiki is the main city in the southern part of the Central African Republic.\n","Latitude":"3.8833","Longitude":"18.0000","Url":"https://en.wikivoyage.org/wiki/Mbaiki","Country":"Central African Republic"},{"Name":"Bambari","Description":"Bambari Is the third largest city in the Central African Republic, lying on the Ouaka River. It is an important market town and is also home to an airport.\n","Latitude":"5.76667","Longitude":"20.68333","Url":"https://en.wikivoyage.org/wiki/Bambari","Country":"Central African Republic"},{"Name":"Bangassou","Description":"Bangassou is the capital of the Mbomou prefecture in the Central African Republic. Situated on the river Mbomou and at a stones-throw  from the border with the neighbouring Democratic Republic of the Congo, Bangassou has been repeatedly tangled up in rebellion fights, including as recently as 2013. \n","Latitude":"4.737","Longitude":"22.819","Url":"https://en.wikivoyage.org/wiki/Bangassou","Country":"Central African Republic"},{"Name":"Birao","Description":"\nBirao is a remote and out of the way place in the very north of the Central African Republic. It is close to the Chad and Sudan border so there is some trade going on but mostly the place suffers from lack of government attention and money. \n","Latitude":"10.2833","Longitude":"22.7833","Url":"https://en.wikivoyage.org/wiki/Birao","Country":"Central African Republic"},{"Name":"Bouar","Description":"The Central African Republic (French: République centrafricaine or Centrafrique, Sangho: Ködörösêse tî Bêafrîka) is at the geographic center of Africa, bordered by Cameroon to the west, Chad to the north, Sudan and South Sudan to the east, and the Democratic Republic of the Congo and Republic of the Congo to the south.\n","Latitude":"6.63187","Longitude":"20.95093","Url":"https://en.wikivoyage.org/wiki/Bouar","Country":"Central African Republic"},{"Name":"Dzanga Sangha National Reserve","Description":"Dzanga Sangha National Reserve is in Southwest Region of Central African Republic.\n","Latitude":"3","Longitude":"16.2","Url":"https://en.wikivoyage.org/wiki/Dzanga_Sangha_National_Reserve","Country":"Central African Republic"},{"Name":"Manovo-Gounda St. Floris National Park","Description":"This park in the Central African Republic is on the UNESCO World Heritage List.\n","Latitude":"8.5","Longitude":"21.5","Url":"https://en.wikivoyage.org/wiki/Manovo-Gounda_St._Floris_National_Park","Country":"Central African Republic"}]