[{"Name":"Port-of-Spain","Description":"\n","Latitude":"10.66103","Longitude":"-61.516079","Url":"https://en.wikivoyage.org/wiki/Port-of-Spain","Country":"Trinidad and Tobago","Photo":"https://upload.wikimedia.org/wikipedia/commons/thumb/e/e7/Port_of_Spain_banner.jpg/2560px-Port_of_Spain_banner.jpg"},{"Name":"Arima","Description":"Arima is one of 3 Boroughs in Trinidad. Its name is derived from the Amerindian Language, and it means \"water\".\n","Latitude":"10.61666667","Longitude":"-61.2666667","Url":"https://en.wikivoyage.org/wiki/Arima","Country":"Trinidad and Tobago","Photo":"https://upload.wikimedia.org/wikipedia/commons/thumb/3/30/Arima_WV_Banner.jpg/2560px-Arima_WV_Banner.jpg"},{"Name":"Chaguanas","Description":"\nChaguanas is in Trinidad.\n","Latitude":"10.51","Longitude":"-61.3834","Url":"https://en.wikivoyage.org/wiki/Chaguanas","Country":"Trinidad and Tobago","Photo":"https://upload.wikimedia.org/wikipedia/commons/thumb/a/af/Chaguanas_Pagebanner.jpg/2560px-Chaguanas_Pagebanner.jpg"},{"Name":"Chaguaramas","Description":"Chaguaramas is a port and peninsular in the northwestern Trinidad.\n","Latitude":"10.6833","Longitude":"-61.6333","Url":"https://en.wikivoyage.org/wiki/Chaguaramas","Country":"Trinidad and Tobago","Photo":"https://upload.wikimedia.org/wikipedia/commons/7/7b/Caribbean_default_banner.jpg"},{"Name":"Point Fortin","Description":"Point Fortin (or just \"Point\") is the main town in the lightly populated deep south peninsula of Trinidad.  It is not far from the city of San Fernando, it is the gateway to the rich treasure of coastline on both the Gulf of Paria and the Atlantic.  Point is pretty much the last business area you would find going to the south of Trinidad. \n","Latitude":"10.1667","Longitude":"-61.6667","Url":"https://en.wikivoyage.org/wiki/Point_Fortin","Country":"Trinidad and Tobago","Photo":"https://upload.wikimedia.org/wikipedia/commons/7/7b/Caribbean_default_banner.jpg"},{"Name":"San Fernando","Description":"San Fernando is Trinidad's busy second city. It is built on hills including the most famous in Trinidad -- San Fernando Hill. San Fernando is very much a carnival city, experiencing a full build-up to its own wide assortment of competitions in Skinner Park as well as energetic parades.\n","Latitude":"10.283333333333","Longitude":"-61.466666666667","Url":"https://en.wikivoyage.org/wiki/San_Fernando","Country":"Trinidad and Tobago","Photo":"https://upload.wikimedia.org/wikipedia/commons/7/7b/Caribbean_default_banner.jpg"},{"Name":"Scarborough (Trinidad and Tobago)","Description":"Scarborough is the main city on the island of Tobago, part of Trinidad and Tobago, a Caribbean country.\n","Latitude":"11.1833","Longitude":"-60.7333","Url":"https://en.wikivoyage.org/wiki/Scarborough_(Trinidad_and_Tobago)","Country":"Trinidad and Tobago","Photo":"https://upload.wikimedia.org/wikipedia/commons/7/7b/Caribbean_default_banner.jpg"}]