[{"Name":"Tripoli","Description":"\n","Latitude":"32.683333","Longitude":"13.166667","Url":"https://en.wikivoyage.org/wiki/Tripoli","Country":"Libya","Photo":"https://upload.wikimedia.org/wikipedia/commons/6/68/Tripoli_banner_Mizran_Street.jpg"},{"Name":"Benghazi","Description":"Benghazi is the second largest city in Libya, with a population of 647.000.\n","Latitude":"32.116666666667","Longitude":"20.066666666667","Url":"https://en.wikivoyage.org/wiki/Benghazi","Country":"Libya","Photo":"https://upload.wikimedia.org/wikipedia/commons/d/d6/Benghazi_banner.jpg"},{"Name":"Ghadamis","Description":"Ghadamis is an oasis town in Libya. Old part of the town is inscribed on UNESCO World Heritage List.\n","Latitude":"30.1333","Longitude":"9.5000","Url":"https://en.wikivoyage.org/wiki/Ghadamis","Country":"Libya","Photo":"https://upload.wikimedia.org/wikipedia/commons/8/80/Ghadames_banner.jpg"},{"Name":"Sabha","Description":"Sabha is the capital of the municipality by the same name in Libya.  It was once the capital of the ancient Fezzan region.\n","Latitude":"27.0389","Longitude":"14.4264","Url":"https://en.wikivoyage.org/wiki/Sabha","Country":"Libya","Photo":"https://upload.wikimedia.org/wikipedia/commons/9/97/Mena-asia_default_banner.jpg"},{"Name":"Shahhat","Description":"Shahhat (Arabic: شحات) is a town in northeastern Libya, on the Mediterranean coast. It is the birthplace of St. Mark the Evangelist.\n","Latitude":"32.827778","Longitude":"21.862222","Url":"https://en.wikivoyage.org/wiki/Shahhat","Country":"Libya","Photo":"https://upload.wikimedia.org/wikipedia/commons/b/b0/WV_banner_Cyrene.jpg"},{"Name":"Surt","Description":"Surt (also Sirt, Sirte) is a city in Libya, best known as Muammar Gaddhafi's hometown. Prior to the civil war of 2011 it was bestowed with a number of governmental edifices subsequently destroyed by NATO aerial bombardment, relentless shelling by NTC rebel forces and then subjected to vandalism and looting of the remains following the killing Muammar Gaddhafi and the suspension of combative activities on 21 October 2011.\n","Latitude":"31.2","Longitude":"16.6","Url":"https://en.wikivoyage.org/wiki/Surt","Country":"Libya","Photo":"https://upload.wikimedia.org/wikipedia/commons/9/97/Mena-asia_default_banner.jpg"},{"Name":"Tobruk","Description":"Tobruk is a port city in the north-east of Libya.\n","Latitude":"32.076111","Longitude":"23.961389","Url":"https://en.wikivoyage.org/wiki/Tobruk","Country":"Libya","Photo":"https://upload.wikimedia.org/wikipedia/commons/9/97/Mena-asia_default_banner.jpg"},{"Name":"Zuwara","Description":"Zuwara is a port city in northwestern Libya.\n","Latitude":"32.933333","Longitude":"12.083333","Url":"https://en.wikivoyage.org/wiki/Zuwara","Country":"Libya","Photo":"https://upload.wikimedia.org/wikipedia/commons/9/97/Mena-asia_default_banner.jpg"},{"Name":"Gaberoun","Description":"Gaberoun is a small former Bedouin village on a wonderful oasis, around 150 km west of Sabha in the North African country of Libya.\n","Latitude":"26.803055555556","Longitude":"13.535277777778","Url":"https://en.wikivoyage.org/wiki/Gaberoun","Country":"Libya","Photo":"https://upload.wikimedia.org/wikipedia/commons/9/97/Mena-asia_default_banner.jpg"},{"Name":"Ghat (Libya)","Description":"Ghat is an ancient settlement in Libya.\n","Latitude":"24.95","Longitude":"10.316667","Url":"https://en.wikivoyage.org/wiki/Ghat_(Libya)","Country":"Libya","Photo":"https://upload.wikimedia.org/wikipedia/commons/f/f6/Ghat_banner.jpg"},{"Name":"Leptis Magna","Description":"Leptis Magna, also spelled Lepcis Magna, is a UNESCO World Heritage Site on the Mediterranean coast of North Africa in the Tripolitania region of Libya.\n","Latitude":"32.639167","Longitude":"14.290556","Url":"https://en.wikivoyage.org/wiki/Leptis_Magna","Country":"Libya","Photo":"https://upload.wikimedia.org/wikipedia/commons/thumb/d/d1/WV_banner_Leptis_Magna.jpg/2560px-WV_banner_Leptis_Magna.jpg"}]