[{"Name":"Lomé","Description":"Lomé is the capital and largest city of Togo.\n","Latitude":"6.131944","Longitude":"1.222778","Url":"https://en.wikivoyage.org/wiki/Lom%C3%A9","Country":"Togo"},{"Name":"Aneho","Description":"\n","Latitude":"6.233333","Longitude":"1.600000","Url":"https://en.wikivoyage.org/wiki/Aneho","Country":"Togo"},null,{"Name":"Badou","Description":"Badou is a town nestled in the Akposso mountains, situated in the West Plateau Region about nine hours from the capital of Lome. Badou is located in the district of Wawa, and is the district capital.  The area is known for being rich agriculturally and many people are farmers.\n","Latitude":"7.5843","Longitude":"0.6067","Url":"https://en.wikivoyage.org/wiki/Badou","Country":"Togo"},null,{"Name":"Kara","Description":"Kara is a city in Togo.\n","Latitude":"9.5488888888889","Longitude":"1.1905555555556","Url":"https://en.wikivoyage.org/wiki/Kara","Country":"Togo"},{"Name":"Kpalime","Description":"\nKpalime (also spelled Kpalimé) is in Central Togo. \n","Latitude":"6.91","Longitude":"0.632","Url":"https://en.wikivoyage.org/wiki/Kpalime","Country":"Togo"},null]