[{"Name":"Conakry","Description":"\nConakry is the capital of Guinea and the economic, commercial and trade center for the area.\n","Latitude":"9.509167","Longitude":"-13.712222","Url":"https://en.wikivoyage.org/wiki/Conakry","Country":"Guinea","Photo":"https://upload.wikimedia.org/wikipedia/commons/e/e5/Conakry_banner.jpg"},null,{"Name":"Dalaba","Description":"\nDalaba is in Guinea.\n","Latitude":"10.691667","Longitude":"-12.25","Url":"https://en.wikivoyage.org/wiki/Dalaba","Country":"Guinea","Photo":"https://upload.wikimedia.org/wikipedia/commons/2/23/Dalaba.jpg"},null,null,{"Name":"Kankan","Description":"Kankan is a city in Guinea.\n","Latitude":"10.3833","Longitude":"-9.3000","Url":"https://en.wikivoyage.org/wiki/Kankan","Country":"Guinea","Photo":"https://upload.wikimedia.org/wikipedia/commons/8/8c/S-amer_africa_default_banner.jpg"},null,{"Name":"Labé","Description":"Labé is a city in Moyenne Guinee region of Guinea.\n","Latitude":"11.3167","Longitude":"-12.2833","Url":"https://en.wikivoyage.org/wiki/Lab%C3%A9","Country":"Guinea","Photo":"https://upload.wikimedia.org/wikipedia/commons/8/8c/S-amer_africa_default_banner.jpg"},null,null,null,null,{"Name":"Mount Nimba Strict Nature Reserve","Description":"Mount Nimba Strict Nature Reserve covers parts of Côte d'Ivoire and Guinea. It is an endangered UNESCO World Heritage Site.\n","Latitude":"7.603","Longitude":"-8.391","Url":"https://en.wikivoyage.org/wiki/Mount_Nimba_Strict_Nature_Reserve","Country":"Guinea","Photo":"https://upload.wikimedia.org/wikipedia/commons/thumb/a/ab/Mount_Nimba_Strict_Nature_Reserve_banner.jpg/2560px-Mount_Nimba_Strict_Nature_Reserve_banner.jpg"},{"Name":"National Park of the Upper Niger","Description":"National Park of the Upper Niger is in the northeast of Guinea.\n","Latitude":"10.5000","Longitude":"-10.2000","Url":"https://en.wikivoyage.org/wiki/National_Park_of_the_Upper_Niger","Country":"Guinea","Photo":"https://upload.wikimedia.org/wikipedia/commons/8/8c/S-amer_africa_default_banner.jpg"}]