[{"Name":"Montevideo","Description":"Montevideo is the capital city of Uruguay, located on the east bank of the Rio de la Plata. Though sometimes overlooked beside nearby Buenos Aires, Montevideo is a significant city in its own right: it's the cultural and political center of the country, home to well over a million people, more than ten times the size of the next largest Uruguayan city. The metro area has around two million—half of the population of Uruguay—but the friendliness and helpfulness of the residents will make you think you're in a much smaller city.\n","Latitude":"-34.8836","Longitude":"-56.1819","Url":"https://en.wikivoyage.org/wiki/Montevideo","Country":"Uruguay"},{"Name":"Punta del Este","Description":"Punta del Este is a beach resort town in Uruguay complete with casinos, beaches, yachts and lots of tourists from all over the world. Many of these tourists come from the other side of the Rio de la Plata from Argentina to get some nice fun in the sun on a beach away from the brown waters of the Rio de la Plata. Punta del Este is located in Maldonado Department, adjacent to the departmental capital of Maldonado, on the Atlantic Coast in the south of the country. The city has a population of 9,277 people.\n","Latitude":"-34.9667","Longitude":"-54.9500","Url":"https://en.wikivoyage.org/wiki/Punta_del_Este","Country":"Uruguay"},{"Name":"Colonia","Description":"Colonia del Sacramento is in southwestern Uruguay, across from Buenos Aires on the northern shore of the Rio de la Plata. Founded in 1680 as a Portuguese colony, Colonia's historic district is now a UNESCO World Heritage site, full of cobblestone streets lined with historic buildings.\n","Latitude":"-34.471389","Longitude":"-57.844167","Url":"https://en.wikivoyage.org/wiki/Colonia","Country":"Uruguay"},{"Name":"Piriapolis","Description":"Piriápolis is a small beach town between Montevideo and Punta del Este in Uruguay.\n","Latitude":"-34.9000","Longitude":"-55.2833","Url":"https://en.wikivoyage.org/wiki/Piriapolis","Country":"Uruguay"},{"Name":"Rivera","Description":"\nRivera is a city in the northern interior of Uruguay. It's the capital of Rivera Department, located on the border with Brazil, right across from the Brazilian city of Santana do Livramento. Full of large hills and cheap shopping, Rivera's main attraction is its location on the border. Uruguayans come for the inexpensive goods on the Brazilian side, and Brazilians come for the duty-free shops on the Uruguayan side. Travellers from other countries can take advantage of both. Rivera also gives you the chance to stand with a foot in each country—a cool photo opportunity.\n","Latitude":"-30.9","Longitude":"-55.54","Url":"https://en.wikivoyage.org/wiki/Rivera","Country":"Uruguay"},{"Name":"La Paloma","Description":"La Paloma is a city in the Atlantic Coast region of Uruguay.\n","Latitude":"-34.665","Longitude":"-54.155","Url":"https://en.wikivoyage.org/wiki/La_Paloma","Country":"Uruguay"},{"Name":"Paysandu","Description":"Paysandú is a city in the northern interior of Uruguay. The capital of Paysandú Department, it is located across the Uruguay River from Colón, Argentina.\n","Latitude":"-32.32","Longitude":"-58.08","Url":"https://en.wikivoyage.org/wiki/Paysandu","Country":"Uruguay"},{"Name":"Salto","Description":"Salto is in the citrus growing region of the Northern Interior of Uruguay, on the east bank of the Rio Uruguay. It is closely connected to the neighbouring Argentinian city of Concordia that lies across the river on the western bank.  Salto has just under 100,000 residents.\n","Latitude":"-31.383333","Longitude":"-57.95","Url":"https://en.wikivoyage.org/wiki/Salto","Country":"Uruguay"},null,{"Name":"Cabo Polonio","Description":"Cabo Polonio is a village in the Atlantic Coast region of Uruguay. \n","Latitude":"-34.397500","Longitude":"-53.789167","Url":"https://en.wikivoyage.org/wiki/Cabo_Polonio","Country":"Uruguay"},{"Name":"Punta del Diablo","Description":"Punta del Diablo is a small seaside village in the Department of Rocha, located on the Atlantic Coast of Uruguay.\n","Latitude":"-34.045","Longitude":"-53.538","Url":"https://en.wikivoyage.org/wiki/Punta_del_Diablo","Country":"Uruguay"},null,null,{"Name":"Along the coast of Uruguay","Description":"The coast of Uruguay is where both the country's population and its tourist destinations tend to be concentrated—not to mention its many beaches. \n","Latitude":"-34.64","Longitude":"-58.42","Url":"https://en.wikivoyage.org/wiki/Along_the_coast_of_Uruguay","Country":"Uruguay"},{"Name":"La Redota","Description":"The Éxodo Oriental (Eastern exodus) journey travels the route done by the people of the Banda Oriental led by Jose Artigas in the 19th century and reenacted in the year 2011 on its bicentennial.\n","Latitude":"-34.9072","Longitude":"-56.206","Url":"https://en.wikivoyage.org/wiki/La_Redota","Country":"Uruguay"}]