[{"Name":"Pyongyang","Description":"P'yŏngyang (평양 Pyeongyang), with about 2,750,000 inhabitants, is the capital city of North Korea. It is on the Taedong River in the southwest of the country.\n","Latitude":"39.019","Longitude":"125.738","Url":"https://en.wikivoyage.org/wiki/Pyongyang","Country":"North Korea"},{"Name":"Chongjin","Description":"Chongjin (청진시) is a city is in the Donghae Coast region of North Korea.\n","Latitude":"41.8","Longitude":"129.78305555556","Url":"https://en.wikivoyage.org/wiki/Chongjin","Country":"North Korea"},{"Name":"Hamhung","Description":"\nHamhung (함흥시, 咸興市) is in the Donghae Coast region in North Korea.\n","Latitude":"39.914131","Longitude":"127.536461","Url":"https://en.wikivoyage.org/wiki/Hamhung","Country":"North Korea"},{"Name":"Kaechon","Description":"\nKaechon (Hangul: 개천시, Hanja: 价川市)) is in South Pyongan province in North Korea.\n","Latitude":"39.698611","Longitude":"125.906111","Url":"https://en.wikivoyage.org/wiki/Kaechon","Country":"North Korea"},{"Name":"Kaesong","Description":"Kaesŏng (개성, 開城) is a city in North Korea, only 8 km from the DMZ with South Korea.\n","Latitude":"37.96","Longitude":"126.55","Url":"https://en.wikivoyage.org/wiki/Kaesong","Country":"North Korea"},{"Name":"Nampho","Description":"\nNampho (남포) is in South Pyongan province in North Korea.\n","Latitude":"38.736565","Longitude":"125.406109","Url":"https://en.wikivoyage.org/wiki/Nampho","Country":"North Korea"},{"Name":"Rason","Description":"Rason (라선시) (formally Rajin-Sŏnbong) is in the Donghae Coast region of North Korea.\n","Latitude":"42.263327","Longitude":"130.375909","Url":"https://en.wikivoyage.org/wiki/Rason","Country":"North Korea"},{"Name":"Sinuiju","Description":"\nSinuiju (신의주시) is in Pyongan province in North Korea.\n","Latitude":"40.1","Longitude":"124.4","Url":"https://en.wikivoyage.org/wiki/Sinuiju","Country":"North Korea"},{"Name":"Wonsan","Description":"Wonsan (원산, 元山市) is a city in the Donghae Coast region of North Korea.\n","Latitude":"39.161479","Longitude":"127.437773","Url":"https://en.wikivoyage.org/wiki/Wonsan","Country":"North Korea"},{"Name":"Kumgangsan","Description":"\n","Latitude":"38.656763888889","Longitude":"128.10490277778","Url":"https://en.wikivoyage.org/wiki/Kumgangsan","Country":"North Korea"},{"Name":"Baekdu Mountains","Description":"The Baekdu Mountains or Paektu Mountain (Korean: 백두산맥) are a range in the northern part of North Korea spanning the provinces of Ryanggang and Chagang that are of huge symbolic importance to many Koreans.\n","Latitude":"40.94","Longitude":"126.83","Url":"https://en.wikivoyage.org/wiki/Baekdu_Mountains","Country":"North Korea"},{"Name":"Panmunjom","Description":"Panmunjeom (판문점), also P'anmunjŏm, is on the demarcation line between North and South Korea.\n","Latitude":"37.956","Longitude":"126.677","Url":"https://en.wikivoyage.org/wiki/Panmunjom","Country":"North Korea"}]