[{"Name":"Caracas","Description":"Caracas is the capital and largest city of Venezuela, in northern Venezuela, near the Caribbean.\n","Latitude":"10.5000","Longitude":"-66.9167","Url":"https://en.wikivoyage.org/wiki/Caracas","Country":"Venezuela"},{"Name":"Coro","Description":"Coro is the capital of Falcón state in Venezuela.\n","Latitude":"11.416667","Longitude":"-69.666667","Url":"https://en.wikivoyage.org/wiki/Coro","Country":"Venezuela"},{"Name":"Ciudad Bolivar","Description":"Ciudad Bolívar is in Bolívar state in Venezuela.\n","Latitude":"8.122","Longitude":"-63.55","Url":"https://en.wikivoyage.org/wiki/Ciudad_Bolivar","Country":"Venezuela"},{"Name":"Ciudad Guayana","Description":"Ciudad Guayana is a city in Venezuela. \n","Latitude":"8.3731","Longitude":"-62.6436","Url":"https://en.wikivoyage.org/wiki/Ciudad_Guayana","Country":"Venezuela"},{"Name":"Maracaibo","Description":"Maracaibo is the capital of Zulia state in western Venezuela, and is the second largest city in the country after Caracas. It has more than 2 million people and it's famous for its typical music, big shopping malls and beautiful parks. It is called \"La Primera Ciudad de Venezuela\" (The Most Important Venezuelan City) because of its development.\n","Latitude":"10.633333333333","Longitude":"-71.633333333333","Url":"https://en.wikivoyage.org/wiki/Maracaibo","Country":"Venezuela"},{"Name":"Maracay","Description":"Maracay is the capital of Aragua state in Venezuela. Famous for being called the Garden City, for its large amount of vegetation. It has several tourist attractions such as the famous Choroní town, monuments, museums, and parks like the Henri Pittier National Park.\n","Latitude":"10.3","Longitude":"-67.6","Url":"https://en.wikivoyage.org/wiki/Maracay","Country":"Venezuela"},{"Name":"Mérida (Venezuela)","Description":"Mérida the capital of Mérida State, is located in Venezuela, at the foot of the Andes, 15 kilometers from Venezuela's highest point. It is the centre for outdoor activities in Venezuela.\n","Latitude":"8.5833333333333","Longitude":"-71.133333333333","Url":"https://en.wikivoyage.org/wiki/M%C3%A9rida_(Venezuela)","Country":"Venezuela"},{"Name":"Puerto La Cruz (Venezuela)","Description":"Puerto La Cruz is a city in Venezuela's Northeast, in the state of Anzoátegui.\n","Latitude":"10.216666666667","Longitude":"-64.616666666667","Url":"https://en.wikivoyage.org/wiki/Puerto_La_Cruz_(Venezuela)","Country":"Venezuela"},{"Name":"San Cristóbal (Venezuela)","Description":"San Cristobal is a leafy, prosperous city of west Venezuela. The city is in a mountainous valley in the temperate green hills of the Andes bordering Colombia. \n","Latitude":"7.75","Longitude":"-72.216666666667","Url":"https://en.wikivoyage.org/wiki/San_Crist%C3%B3bal_(Venezuela)","Country":"Venezuela"},{"Name":"Angel Falls","Description":"Canaima National Park is in the Gran Sabana region of Venezuela, in the southern Bolivar State. The park is a UNESCO World Heritage site.\n","Latitude":"5.5","Longitude":"-62","Url":"https://en.wikivoyage.org/wiki/Angel_Falls","Country":"Venezuela"},{"Name":"Canaima National Park","Description":"Canaima National Park is in the Gran Sabana region of Venezuela, in the southern Bolivar State. The park is a UNESCO World Heritage site.\n","Latitude":"5.5","Longitude":"-62","Url":"https://en.wikivoyage.org/wiki/Canaima_National_Park","Country":"Venezuela"},{"Name":"Choroní","Description":"Choroní is a popular beach destination in Aragua state in Venezuela.\n","Latitude":"10.506944444444","Longitude":"-67.606388888889","Url":"https://en.wikivoyage.org/wiki/Choron%C3%AD","Country":"Venezuela"},{"Name":"Los Roques","Description":"Archipelago de Los Roques is a chain of islands and coral reefs in the Caribbean Sea about 166 km north of the Venezuelan mainland. Administratively, they are part of Venezuela's Federal Dependencies.\n","Latitude":"11.8575","Longitude":"-66.7575","Url":"https://en.wikivoyage.org/wiki/Los_Roques","Country":"Venezuela"},{"Name":"Margarita Island","Description":"Margarita Island (Spanish: Isla de Margarita) is in the Venezuelan state of Nueva Esparta, off the northeastern coast of the mainland and to the northeast of the country's capital Caracas.\n","Latitude":"11.01778","Longitude":"-63.9222","Url":"https://en.wikivoyage.org/wiki/Margarita_Island","Country":"Venezuela"},{"Name":"Mochima National Park","Description":"Mochima National Park is in Sucre state, off the Northeast of Venezuela.\n","Latitude":"10.2614","Longitude":"-64.4800","Url":"https://en.wikivoyage.org/wiki/Mochima_National_Park","Country":"Venezuela"},{"Name":"Morrocoy National Park","Description":"Morrocoy is in the state of Falcón in northwestern Venezuela.\n","Latitude":"10.8560","Longitude":"-68.3060","Url":"https://en.wikivoyage.org/wiki/Morrocoy_National_Park","Country":"Venezuela"},{"Name":"Los Llanos (Venezuela)","Description":"Los Llanos is the vast plains region covering much of central and southwestern Venezuela.\n","Latitude":"8.17","Longitude":"-68.88","Url":"https://en.wikivoyage.org/wiki/Los_Llanos_(Venezuela)","Country":"Venezuela"},null,{"Name":"La Gran Sabana","Description":"La Gran Sabana is a region in the Bolívar State of South-east Venezuela.\n","Latitude":"6.2500","Longitude":"-62.8383","Url":"https://en.wikivoyage.org/wiki/La_Gran_Sabana","Country":"Venezuela"}]