[{"Name":"Baghdad","Description":"Baghdad (Arabic: بـغداد Baġdād) is the capital of Iraq.\n","Latitude":"33.30313","Longitude":"44.37850","Url":"https://en.wikivoyage.org/wiki/Baghdad","Country":"Iraq"},{"Name":"Ar Rutba","Description":"Ar Rutba is a city in the Iraqi Desert. It is the westernmost town of any real size. Ar Rutba is a Sunni-majority city and was most notably the site of a large part of the old Iraqi air defense warning system, housing a number of military personnel there. The warning station was destroyed in the 1990-91 Gulf War. It was seized by ISIS in 2014, but has since been liberated by Iraqi Security Forces. \n","Latitude":"33.0381","Longitude":"40.2844","Url":"https://en.wikivoyage.org/wiki/Ar_Rutba","Country":"Iraq"},{"Name":"Basra","Description":"Basra (Arabic: البصرة Al Baṣrah) is a port city in Southern Iraq, very close to the border with Kuwait. It is Iraq's third largest city with a population of 1,700,000 (2003).\n","Latitude":"30.5000","Longitude":"47.8167","Url":"https://en.wikivoyage.org/wiki/Basra","Country":"Iraq"},{"Name":"Dahuk (city)","Description":"Dahuk (also spelled Duhok or Dohuk; Kurdish: دهۆک‎, Dihok; Syriac: ܢܘܗܕܪܐ‎ Nūhadrā; Arabic: دهوك‎ Dahūk) is the capital of Duhok Governorate in Iraqi Kurdistan, it is a Kurdish city with a population of approximately 250,000 inhabitants, consisting mostly of Kurds and Assyrians. The city is encircled by mountains along the Tigris river.\n","Latitude":"36.866667","Longitude":"43","Url":"https://en.wikivoyage.org/wiki/Dahuk_(city)","Country":"Iraq"},{"Name":"Erbil","Description":"Erbil (Hawlêr in Kurdish and also transliterated as Arbil) is the capital and largest city in Iraqi Kurdistan, and the fourth-largest city in Iraq. It is one of the oldest continually-inhabited sites of human civilization, and is also a rapidly-growing and urbanizing center for the oil industry and NGOs in the Middle East.\n","Latitude":"36.19220","Longitude":"44.00840","Url":"https://en.wikivoyage.org/wiki/Erbil","Country":"Iraq"},{"Name":"Fallujah","Description":"Fallujah (Arabic: الفلّوجة, Aramaic: Pumbeidtha) is a city in Iraq's Baghdad Belts.\n","Latitude":"33.35","Longitude":"43.783333","Url":"https://en.wikivoyage.org/wiki/Fallujah","Country":"Iraq"},{"Name":"Karbala","Description":"Karbala (Arabic: كربلاء‎‎) is a city in Southern Iraq. It is considered one of the holiest cities in the country.\n","Latitude":"32.616667","Longitude":"44.033333","Url":"https://en.wikivoyage.org/wiki/Karbala","Country":"Iraq"},{"Name":"Kirkuk","Description":"Kirkuk (Kurdish: کەرکووک) is a city in Northwestern Iraq. Its population is ethnically mixed, and it is under the control of the Iraqi government.\n","Latitude":"35.4667","Longitude":"44.3167","Url":"https://en.wikivoyage.org/wiki/Kirkuk","Country":"Iraq"},{"Name":"Mosul","Description":"Mosul (Arabic: الموصل‎ al-Mawṣil, Maṣlawī Arabic: al-Mōṣul, Assyrian: ܢܝܢܘܐ  Ninaweh, Kurdish: Mosul/Ninawa, Turkish: Musul) is a city in Iraq's Northwestern region, and is the country's second largest city by population. Its religious makeup is one of the most diverse in the country.\n","Latitude":"36.34","Longitude":"43.13","Url":"https://en.wikivoyage.org/wiki/Mosul","Country":"Iraq"},{"Name":"Sulaimaniyah","Description":"\nSulemania (Kurdish: سلێمانی) is a very young city. It was founded in 1784 by Ibrahim Pasha Baban, a Kurdish prince, to be the capital of his principality. Since then it has been Iraqi Kurdistan’s cultural capital and home to philosophers, poets and writers. Its importance is not limited to Iraq, but for the whole of the Kurdistan region, which also encompasses parts of Turkey, Syria and Iran.\n","Latitude":"35.55","Longitude":"45.433333","Url":"https://en.wikivoyage.org/wiki/Sulaimaniyah","Country":"Iraq"},{"Name":"Assur","Description":"\nAssur is an ancient Assyrian ruin in Northwestern Iraq. In the Bronze Age, it was an important trade hub.\n","Latitude":"35.456667","Longitude":"43.2625","Url":"https://en.wikivoyage.org/wiki/Assur","Country":"Iraq"},{"Name":"Babylon","Description":"Babylon is a ruin in Iraq, and used to be one of the most prominent cities of Ancient Mesopotamia.\n","Latitude":"32.536389","Longitude":"44.420833","Url":"https://en.wikivoyage.org/wiki/Babylon","Country":"Iraq"},{"Name":"Ctesiphon","Description":"Baghdad (Arabic: بـغداد Baġdād) is the capital of Iraq.\n","Latitude":"33.30313","Longitude":"44.37850","Url":"https://en.wikivoyage.org/wiki/Ctesiphon","Country":"Iraq"},{"Name":"Hatra","Description":"    \n","Latitude":"35.5667","Longitude":"42.7333","Url":"https://en.wikivoyage.org/wiki/Hatra","Country":"Iraq"},{"Name":"Nineveh","Description":"Mosul (Arabic: الموصل‎ al-Mawṣil, Maṣlawī Arabic: al-Mōṣul, Assyrian: ܢܝܢܘܐ  Ninaweh, Kurdish: Mosul/Ninawa, Turkish: Musul) is a city in Iraq's Northwestern region, and is the country's second largest city by population. Its religious makeup is one of the most diverse in the country.\n","Latitude":"36.34","Longitude":"43.13","Url":"https://en.wikivoyage.org/wiki/Nineveh","Country":"Iraq"},{"Name":"Ur","Description":"Nasiriyah is a city in Southern Iraq . It the closest major settlement to the prehistoric city of Ur.\n","Latitude":"31.053889","Longitude":"46.250278","Url":"https://en.wikivoyage.org/wiki/Ur","Country":"Iraq"}]