[{"Name":"Muscat","Description":"Muscat (Arabic: مسقط) has been inhabited since at least 1000 BCE and for centuries was an important trading port on the Maritime Silk Road. Today it is the capital of the Sultanate of Oman and its most important and populous city (at 812,000). It is home to a multi-ethnic and multi-cultural society, and receives the largest number of foreign visitors to the country.\n","Latitude":"23.55706","Longitude":"58.47027","Url":"https://en.wikivoyage.org/wiki/Muscat","Country":"Oman"},{"Name":"Bahla","Description":"Bahla is a fortified oasis town in Northern Oman, best known for its immense 14th-century fortress and for a unique style of pottery.\n","Latitude":"22.96666667","Longitude":"57.3","Url":"https://en.wikivoyage.org/wiki/Bahla","Country":"Oman"},{"Name":"Buraimi","Description":"Buraimi (Buraymi) is a town in Northern Oman and the capital of the Al Buraymi governate.\n","Latitude":"24.2500","Longitude":"55.7500","Url":"https://en.wikivoyage.org/wiki/Buraimi","Country":"Oman"},{"Name":"Ibra","Description":"Ibra is a city in Central Coastal Oman. It's located on the road from Nizwa to Sur and is the gateway to the desert of the Wahiba Sands.\n","Latitude":"22.6833","Longitude":"58.5500","Url":"https://en.wikivoyage.org/wiki/Ibra","Country":"Oman"},{"Name":"Matrah","Description":"Muscat (Arabic: مسقط) has been inhabited since at least 1000 BCE and for centuries was an important trading port on the Maritime Silk Road. Today it is the capital of the Sultanate of Oman and its most important and populous city (at 812,000). It is home to a multi-ethnic and multi-cultural society, and receives the largest number of foreign visitors to the country.\n","Latitude":"23.55706","Longitude":"58.47027","Url":"https://en.wikivoyage.org/wiki/Matrah","Country":"Oman"},{"Name":"Nizwa","Description":"Nizwa is a historic city in Northern Oman.  \n","Latitude":"22.9333","Longitude":"57.5333","Url":"https://en.wikivoyage.org/wiki/Nizwa","Country":"Oman"},{"Name":"Salalah","Description":"Salalah is the capital city of Oman's southern Dhofar region. It is the second largest city in the Sultanate, and has the distinction of being the Sultan Qaboos' birthplace.\n","Latitude":"17.0197","Longitude":"54.0897","Url":"https://en.wikivoyage.org/wiki/Salalah","Country":"Oman"},{"Name":"Sohar","Description":"Sohar is a city in Northern Oman, 100 km north of Muscat.\n","Latitude":"24.342000","Longitude":"56.729889","Url":"https://en.wikivoyage.org/wiki/Sohar","Country":"Oman"},{"Name":"Sur","Description":"Sur is a city in Central Coastal Oman, best known for its dhow shipyards.\n","Latitude":"22.566667","Longitude":"59.528889","Url":"https://en.wikivoyage.org/wiki/Sur","Country":"Oman"},{"Name":"Hajar Mountains","Description":"The Hajar Mountains are a range in Northern Oman stretching along the northern coast of Oman, from southwest of Muscat to the United Arab Emirates.\n","Latitude":"23.18","Longitude":"57.53","Url":"https://en.wikivoyage.org/wiki/Hajar_Mountains","Country":"Oman"},{"Name":"Madha","Description":"Madha is an exclave of Oman that is completely surrounded by the Fujairah emirate of the United Arab Emirates.\n","Latitude":"25.284444444444","Longitude":"56.333055555556","Url":"https://en.wikivoyage.org/wiki/Madha","Country":"Oman"},{"Name":"Masirah Island","Description":"Masirah Island is in Central Coastal Oman.\n","Latitude":"20.471111111111","Longitude":"58.815277777778","Url":"https://en.wikivoyage.org/wiki/Masirah_Island","Country":"Oman"},{"Name":"Musandam Peninsula","Description":"The Musandam Peninsula (Arabic: جَـزِيـرَة مُـسَـنْـدَم‎, Jazīraṫ Musandam) is an exclave of Northern Oman. Musandam is the northernmost tip of a peninsula that juts northward into the Persian Gulf and is roughly divided along its length between Oman and the UAE.\n","Latitude":"25.95365","Longitude":"56.27262","Url":"https://en.wikivoyage.org/wiki/Musandam_Peninsula","Country":"Oman"},{"Name":"Wahiba Sands","Description":"Wahiba Sands is a vast sand dune filled desert just south of Sur in Central Coastal Oman.\n","Latitude":"21.75","Longitude":"58.71","Url":"https://en.wikivoyage.org/wiki/Wahiba_Sands","Country":"Oman"}]